{
  "features": [
    {
      "type": "Feature",
      "properties": {
        "Zip": "02155",
        "Address components": "323A, Boston Avenue, Medford, Middlesex County, Massachusetts, United States, 02155",
        "Street": "Boston Avenue",
        "Street number": "323A",
        "CITY": "Medford",
        "City": "Medford",
        "A_A_B_C_D": "323a Boston Ave Medford MA 02155",
        "STATE": "MA",
        "State": "Massachusetts",
        "ADDR": "323a Boston Ave",
        "Country": "United States",
        "PHON": "7813963265",
        "ZIP9": "02155",
        "title": "University W & S"
      },
      "geometry": {
        "coordinates": [
          -71.122153,
          42.411644
        ],
        "type": "Point"
      },
      "id": "008e5d9debcade0168f5536680eb789d"
    },
    {
      "type": "Feature",
      "properties": {
        "Zip": "02657",
        "Address components": "68, Shank Painter Road, Provincetown, Barnstable County, Massachusetts, United States, 02657, 1341",
        "Street": "Shank Painter Road",
        "Street number": "68",
        "CITY": "PROVINCETOWN",
        "City": "Provincetown",
        "A_A_B_C_D": "68 SHANKPAINTER ROAD PROVINCETOWN MA 02657",
        "STATE": "MA",
        "State": "Massachusetts",
        "ADDR": "68 SHANKPAINTER ROAD",
        "Country": "United States",
        "PHON": "15084871111",
        "ZIP9": "02657",
        "title": "PENNIE S MARKET"
      },
      "geometry": {
        "coordinates": [
          -70.195766,
          42.051232
        ],
        "type": "Point"
      },
      "id": "0135ba5371d1eedc6d028f596b9d2c0e"
    },
    {
      "type": "Feature",
      "properties": {
        "Zip": "02140",
        "Address components": "1739, Massachusetts Avenue, Agassiz, Cambridge, Middlesex County, Massachusetts, United States, 02140",
        "Street": "Massachusetts Avenue",
        "Street number": "1739",
        "CITY": "Cambridge",
        "City": "Cambridge",
        "A_A_B_C_D": "1739 Mass Ave Cambridge MA 02140",
        "STATE": "MA",
        "State": "Massachusetts",
        "ADDR": "1739 Mass Ave",
        "Country": "United States",
        "PHON": "6175474258",
        "ZIP9": "02140",
        "title": "University Wine Shop"
      },
      "geometry": {
        "coordinates": [
          -71.119124,
          42.384523
        ],
        "type": "Point"
      },
      "id": "0197ee48d54607ba1e54c5cf62264153"
    },
    {
      "type": "Feature",
      "properties": {
        "Zip": "02539",
        "Address components": "249, Edgartown Road, Edgartown, Dukes County, Massachusetts, United States, 02539",
        "Street": "Edgartown Road",
        "Street number": "249",
        "CITY": "EDGARTOWN",
        "City": "Edgartown",
        "A_A_B_C_D": "249 B EDGARTOWN ROAD EDGARTOWN MA 02539",
        "STATE": "MA",
        "State": "Massachusetts",
        "ADDR": "249 B EDGARTOWN ROAD",
        "Country": "United States",
        "PHON": "15086274557",
        "ZIP9": "02539",
        "title": "YOUR MARKET"
      },
      "geometry": {
        "coordinates": [
          -70.535632,
          41.387285
        ],
        "type": "Point"
      },
      "id": "04888ae7b155cb345bfe5c6effbe7bf6"
    },
    {
      "type": "Feature",
      "properties": {
        "Zip": "02482",
        "Address components": "442, Washington Street, Wellesley, Norfolk County, Massachusetts, United States, 02482, 6211",
        "Street": "Washington Street",
        "Street number": "442",
        "CITY": "Wellesley",
        "City": "Wellesley",
        "A_A_B_C_D": "442 Washington St Wellesley MA 02482",
        "STATE": "MA",
        "State": "Massachusetts",
        "ADDR": "442 Washington St",
        "Country": "United States",
        "PHON": "17812357262",
        "ZIP9": "02482",
        "title": "Whole Foods Market - Wellesley"
      },
      "geometry": {
        "coordinates": [
          -71.285997,
          42.302622
        ],
        "type": "Point"
      },
      "id": "04ec4afd3e1d51d35342ea780eb39074"
    },
    {
      "type": "Feature",
      "properties": {
        "Zip": "02050",
        "Address components": "700, Plain Street, Marshfield, Marshfield, Plymouth County, Massachusetts, United States, 02050",
        "Street": "Plain Street",
        "Street number": "700",
        "CITY": "MARSHFIELD",
        "City": "Marshfield",
        "A_A_B_C_D": "700 PLAIN STREET MARSHFIELD MA 02050",
        "STATE": "MA",
        "State": "Massachusetts",
        "ADDR": "700 PLAIN STREET",
        "Country": "United States",
        "PHON": "17818349068",
        "ZIP9": "02050",
        "title": "MARSHFIELD BLANCHARD S"
      },
      "geometry": {
        "coordinates": [
          -70.745886,
          42.106594
        ],
        "type": "Point"
      },
      "id": "09232524905b2aa22e5185d8ec44108d"
    },
    {
      "type": "Feature",
      "properties": {
        "Zip": "02140",
        "Address components": "2225, Massachusetts Avenue, North Cambridge, Cambridge, Middlesex County, Massachusetts, United States, 02140",
        "Street": "Massachusetts Avenue",
        "Street number": "2225",
        "CITY": "Cambridge",
        "City": "Cambridge",
        "A_A_B_C_D": "2225 Mass Ave Cambridge MA 02140",
        "STATE": "MA",
        "State": "Massachusetts",
        "ADDR": "2225 Mass Ave",
        "Country": "United States",
        "PHON": "6174912244",
        "ZIP9": "02140",
        "title": "Pemberton Farms"
      },
      "geometry": {
        "coordinates": [
          -71.125773,
          42.393828
        ],
        "type": "Point"
      },
      "id": "0d69ab9332dcf71ca8346140c5d5ab7b"
    },
    {
      "type": "Feature",
      "properties": {
        "Zip": "02131",
        "Address components": "4228, Washington Street, Roslindale, Boston, Suffolk County, Massachusetts, United States, 02131",
        "Street": "Washington Street",
        "Street number": "4228",
        "CITY": "Roslindale",
        "City": "Boston",
        "A_A_B_C_D": "4228 Washington St Roslindale MA 02131",
        "STATE": "MA",
        "State": "Massachusetts",
        "ADDR": "4228 Washington St",
        "Country": "United States",
        "PHON": "6176155702",
        "ZIP9": "02131",
        "title": "Craft Beer Cellar - Roslindale"
      },
      "geometry": {
        "coordinates": [
          -71.128094,
          42.286184
        ],
        "type": "Point"
      },
      "id": "0f64e36e8a9ede8a710a3fe4776cbacc"
    },
    {
      "type": "Feature",
      "properties": {
        "Zip": "02138",
        "Address components": "33, Dunster Street, Riverside, Cambridge, Middlesex County, Massachusetts, United States, 02138, 5002",
        "Street": "Dunster Street",
        "Street number": "33",
        "CITY": "Cambridge",
        "City": "Cambridge",
        "A_A_B_C_D": "33 Dunster Street Cambridge MA 02138",
        "STATE": "MA",
        "State": "Massachusetts",
        "ADDR": "33 Dunster Street",
        "Country": "United States",
        "PHON": "6178683585",
        "ZIP9": "02138",
        "title": "John Harvard Brewhouse"
      },
      "geometry": {
        "coordinates": [
          -71.119282,
          42.372604
        ],
        "type": "Point"
      },
      "id": "12fa1979301fd3c2f0e538fd3b6b9661"
    },
    {
      "type": "Feature",
      "properties": {
        "Zip": "01867",
        "Address components": "26, Haven Street, Reading, Middlesex County, Massachusetts, United States, 01867",
        "Street": "Haven Street",
        "Street number": "26",
        "CITY": "READING",
        "City": "Reading",
        "A_A_B_C_D": "26 HAVEN STREET READING MA 01867",
        "STATE": "MA",
        "State": "Massachusetts",
        "ADDR": "26 HAVEN STREET",
        "Country": "United States",
        "PHON": "17818721125",
        "ZIP9": "01867",
        "title": "PAMPLEMOUSSE II"
      },
      "geometry": {
        "coordinates": [
          -71.106691,
          42.522378
        ],
        "type": "Point"
      },
      "id": "14140700ac211eed82e32f872f6688f6"
    },
    {
      "type": "Feature",
      "properties": {
        "Zip": "02642",
        "Address components": "4550, State Highway, Eastham, Barnstable County, Massachusetts, United States, 02642, 2770",
        "Street": "State Highway",
        "Street number": "4550",
        "CITY": "EASTHAM",
        "City": "Eastham",
        "A_A_B_C_D": "4550 STATE HIGHWAY EASTHAM MA 02651",
        "STATE": "MA",
        "State": "Massachusetts",
        "ADDR": "4550 STATE HIGHWAY",
        "Country": "United States",
        "PHON": "15082553660",
        "ZIP9": "02651",
        "title": "TOWN CENTER PKG STORE"
      },
      "geometry": {
        "coordinates": [
          -69.986165,
          41.85686
        ],
        "type": "Point"
      },
      "id": "17c96886a713b1effd98d3e73d25968b"
    },
    {
      "type": "Feature",
      "properties": {
        "Zip": "02494",
        "Address components": "922, Highland Avenue, Needham Heights, Needham, Norfolk County, Massachusetts, United States, 02494",
        "Street": "Highland Avenue",
        "Street number": "922",
        "CITY": "Needham",
        "City": "Needham",
        "A_A_B_C_D": "922 Highland Ave Needham MA 02494",
        "STATE": "MA",
        "State": "Massachusetts",
        "ADDR": "922 Highland Ave",
        "Country": "United States",
        "PHON": "7814449463",
        "ZIP9": "02494",
        "title": "Vinodivino - Needham"
      },
      "geometry": {
        "coordinates": [
          -71.234669,
          42.292949
        ],
        "type": "Point"
      },
      "id": "19cf70497784d7d7a10ecd6122ed5c96"
    },
    {
      "type": "Feature",
      "properties": {
        "Zip": "01867",
        "Address components": "1, General Way, Reading, Middlesex County, Massachusetts, United States, 01867",
        "Street": "General Way",
        "Street number": "1",
        "CITY": "READING",
        "City": "Reading",
        "A_A_B_C_D": "ONE GENERAL WAY READING MA 01867",
        "STATE": "MA",
        "State": "Massachusetts",
        "ADDR": "ONE GENERAL WAY",
        "Country": "United States",
        "PHON": "17819429463",
        "ZIP9": "01867",
        "title": "LIQUOR JUNCTION"
      },
      "geometry": {
        "coordinates": [
          -71.099359,
          42.519313
        ],
        "type": "Point"
      },
      "id": "1b33e090f5c25f0bbbc6ede6f3c57474"
    },
    {
      "type": "Feature",
      "properties": {
        "Zip": "01970",
        "Address components": "94, Wharf Street, Salem, Essex County, Massachusetts, United States, 01970",
        "Street": "Wharf Street",
        "Street number": "94",
        "CITY": "SALEM",
        "City": "Salem",
        "A_A_B_C_D": "94 WHARF ST SALEM MA 01970",
        "STATE": "MA",
        "State": "Massachusetts",
        "ADDR": "94 WHARF ST",
        "Country": "United States",
        "PHON": "9787410555",
        "ZIP9": "01970",
        "title": "SEA LEVEL OYSTER BAR"
      },
      "geometry": {
        "coordinates": [
          -70.887725,
          42.520304
        ],
        "type": "Point"
      },
      "id": "1c3c16166846aa97d2abd093a8807b84"
    },
    {
      "type": "Feature",
      "properties": {
        "Zip": "02109",
        "Address components": "136, Blackstone Street, Downtown, Boston, Suffolk County, Massachusetts, United States, 02109",
        "Street": "Blackstone Street",
        "Street number": "136",
        "CITY": "Boston",
        "City": "Boston",
        "A_A_B_C_D": "136 Blackstone Street Boston MA 02109",
        "STATE": "MA",
        "State": "Massachusetts",
        "ADDR": "136 Blackstone Street",
        "Country": "United States",
        "PHON": "0",
        "ZIP9": "02109",
        "title": "Hopsters Beer Alley"
      },
      "geometry": {
        "coordinates": [
          -71.05732,
          42.36212
        ],
        "type": "Point"
      },
      "id": "1e9e96c9e71af8b4d7bf0e84516e837b"
    },
    {
      "type": "Feature",
      "properties": {
        "Zip": "02140",
        "Address components": "62, Walden Street, Neighborhood Nine, Cambridge, Middlesex County, Massachusetts, United States, 02140, 2020",
        "Street": "Walden Street",
        "Street number": "62",
        "CITY": "Cambridge",
        "City": "Cambridge",
        "A_A_B_C_D": "62 Walden St Cambridge MA 02140",
        "STATE": "MA",
        "State": "Massachusetts",
        "ADDR": "62 Walden St",
        "Country": "United States",
        "PHON": "6174922522",
        "ZIP9": "02140",
        "title": "Thistle & Shamrock"
      },
      "geometry": {
        "coordinates": [
          -71.124838,
          42.388955
        ],
        "type": "Point"
      },
      "id": "257db09b6867fb235dd91a8a3ad584ae"
    },
    {
      "type": "Feature",
      "properties": {
        "Zip": "02130",
        "Address components": "672, Centre Street, Jamaica Plain, Boston, Suffolk County, Massachusetts, United States, 02130",
        "Street": "Centre Street",
        "Street number": "672",
        "CITY": "Jamaica Plain",
        "City": "Boston",
        "A_A_B_C_D": "672 Centre Street Jamaica Plain MA 02130",
        "STATE": "MA",
        "State": "Massachusetts",
        "ADDR": "672 Centre Street",
        "Country": "United States",
        "PHON": "0",
        "ZIP9": "02130",
        "title": "City Feed & Supply"
      },
      "geometry": {
        "coordinates": [
          -71.114004,
          42.312352
        ],
        "type": "Point"
      },
      "id": "2ab49aa7a363378c0b00c933c562b460"
    },
    {
      "type": "Feature",
      "properties": {
        "Zip": "02347",
        "Address components": "13, Harding Street, Lakeville, Plymouth County, Massachusetts, United States, 02347",
        "Street": "Harding Street",
        "Street number": "13",
        "CITY": "LAKEVILLE",
        "City": "Lakeville",
        "A_A_B_C_D": "13 HARDING STREET LAKEVILLE MA 02347",
        "STATE": "MA",
        "State": "Massachusetts",
        "ADDR": "13 HARDING STREET",
        "Country": "United States",
        "PHON": "15089471144",
        "ZIP9": "02347",
        "title": "MUCKEY S LAKEVILLE"
      },
      "geometry": {
        "coordinates": [
          -70.981977,
          41.901384
        ],
        "type": "Point"
      },
      "id": "2bd31e5cbc9d96b4d518101eb27813de"
    },
    {
      "type": "Feature",
      "properties": {
        "Zip": "02215",
        "Address components": "96, Van Ness Street, West Fens, Boston, Suffolk County, Massachusetts, United States, 02215",
        "Street": "Van Ness Street",
        "Street number": "96",
        "CITY": "Boston",
        "City": "Boston",
        "A_A_B_C_D": "96 Van Ness Street Boston MA 02215",
        "STATE": "MA",
        "State": "Massachusetts",
        "ADDR": "96 Van Ness Street",
        "Country": "United States",
        "PHON": "4702223367",
        "ZIP9": "02215",
        "title": "Craft Beer Cellar - Fenway"
      },
      "geometry": {
        "coordinates": [
          -71.098502,
          42.345325
        ],
        "type": "Point"
      },
      "id": "2c02855812f75132f19c7f69dd491bba"
    },
    {
      "type": "Feature",
      "properties": {
        "Zip": "01863",
        "Address components": "11, Vinal Square, North Chelmsford, Chelmsford, Middlesex County, Massachusetts, United States, 01863",
        "Street": "Vinal Square",
        "Street number": "11",
        "CITY": "CHELMSFORD",
        "City": "Chelmsford",
        "A_A_B_C_D": "11 VINAL SQUARE CHELMSFORD MA 01824",
        "STATE": "MA",
        "State": "Massachusetts",
        "ADDR": "11 VINAL SQUARE",
        "Country": "United States",
        "PHON": "18137857485",
        "ZIP9": "01824",
        "title": "CRAFT BEER HOUSE & LIQS"
      },
      "geometry": {
        "coordinates": [
          -71.383945,
          42.63946
        ],
        "type": "Point"
      },
      "id": "2c8c5dda9dcacc088b56e96400065cac"
    },
    {
      "type": "Feature",
      "properties": {
        "Zip": "01776",
        "Address components": "439, Boston Post Road, Sudbury, Middlesex County, Massachusetts, United States, 01776, 3056",
        "Street": "Boston Post Road",
        "Street number": "439",
        "CITY": "SUDBURY",
        "City": "Sudbury",
        "A_A_B_C_D": "439 BOSTON POST ROAD SUDBURY MA 01776",
        "STATE": "MA",
        "State": "Massachusetts",
        "ADDR": "439 BOSTON POST ROAD",
        "Country": "United States",
        "PHON": "9784439040",
        "ZIP9": "01776",
        "title": "SUDBURY FARMS (BEER)"
      },
      "geometry": {
        "coordinates": [
          -71.423164,
          42.359577
        ],
        "type": "Point"
      },
      "id": "300c99619db481b40aa1203ffb8b4a02"
    },
    {
      "type": "Feature",
      "properties": {
        "Zip": "02152",
        "Address components": "253, Washington Avenue, Winthrop, Suffolk County, Massachusetts, United States, 02152, 1347",
        "Street": "Washington Avenue",
        "Street number": "253",
        "CITY": "Winthrop",
        "City": "Winthrop",
        "A_A_B_C_D": "253 Washington St Winthrop MA 02152",
        "STATE": "MA",
        "State": "Massachusetts",
        "ADDR": "253 Washington St",
        "Country": "United States",
        "PHON": "6178469298",
        "ZIP9": "02152",
        "title": "Thompsons Liquors"
      },
      "geometry": {
        "coordinates": [
          -70.971699,
          42.372435
        ],
        "type": "Point"
      },
      "id": "302131370fccd59da02eb035a54e762a"
    },
    {
      "type": "Feature",
      "properties": {
        "Zip": "02760",
        "Address components": "1212, South Washington Street, North Attleborough, Bristol County, Massachusetts, United States, 02760, 6250",
        "Street": "South Washington Street",
        "Street number": "1212",
        "CITY": "NORTH ATTLEBORO",
        "City": "North Attleborough",
        "A_A_B_C_D": "1212 SOUTH WASHINGTON STR NORTH ATTLEBORO MA 02760",
        "STATE": "MA",
        "State": "Massachusetts",
        "ADDR": "1212 SOUTH WASHINGTON STR",
        "Country": "United States",
        "PHON": "15086999463",
        "ZIP9": "02760",
        "title": "CHRIS GASBARRO S FINE W&S"
      },
      "geometry": {
        "coordinates": [
          -71.347829,
          41.941213
        ],
        "type": "Point"
      },
      "id": "320e83bec6f6aee2a7d5c8e31b6cba95"
    },
    {
      "type": "Feature",
      "properties": {
        "Zip": "02659",
        "Address components": "2642, Main Street, South Chatham, Chatham, Chatham, Barnstable County, Massachusetts, United States, 02659, 1362",
        "Street": "Main Street",
        "Street number": "2642",
        "CITY": "CHATHAM",
        "City": "Chatham",
        "A_A_B_C_D": "2642 MAIN STREET CHATHAM MA 02659",
        "STATE": "MA",
        "State": "Massachusetts",
        "ADDR": "2642 MAIN STREET",
        "Country": "United States",
        "PHON": "15086540293",
        "ZIP9": "02659",
        "title": "THE TALKATIVE PIG"
      },
      "geometry": {
        "coordinates": [
          -70.026913,
          41.678948
        ],
        "type": "Point"
      },
      "id": "324ebf07262df8265f88ad5c455bfe24"
    },
    {
      "type": "Feature",
      "properties": {
        "Zip": "01985",
        "Address components": "275, Main Street, West Newbury, Essex County, Massachusetts, United States, 01985, 1416",
        "Street": "Main Street",
        "Street number": "275",
        "CITY": "WEST NEWBURY",
        "City": "West Newbury",
        "A_A_B_C_D": "275 MAIN ST WEST NEWBURY MA 01985",
        "STATE": "MA",
        "State": "Massachusetts",
        "ADDR": "275 MAIN ST",
        "Country": "United States",
        "PHON": "19783632242",
        "ZIP9": "01985",
        "title": "WEST NEWBURY FOOD MART"
      },
      "geometry": {
        "coordinates": [
          -70.995962,
          42.794903
        ],
        "type": "Point"
      },
      "id": "32674c09eae9ec50a75c8a3316725a7c"
    },
    {
      "type": "Feature",
      "properties": {
        "Zip": "02115",
        "Address components": "301, Huntington Avenue, Fenway/Kenmore, Boston, Suffolk County, Massachusetts, United States, 02115",
        "Street": "Huntington Avenue",
        "Street number": "301",
        "CITY": "Boston",
        "City": "Boston",
        "A_A_B_C_D": "301 Huntington Ave Boston MA 02115",
        "STATE": "MA",
        "State": "Massachusetts",
        "ADDR": "301 Huntington Ave",
        "Country": "United States",
        "PHON": "6175360164",
        "ZIP9": "02115",
        "title": "Huntington W&S"
      },
      "geometry": {
        "coordinates": [
          -71.087078,
          42.341313
        ],
        "type": "Point"
      },
      "id": "33011df20493a4f529c98e5b5d285b7d"
    },
    {
      "type": "Feature",
      "properties": {
        "Zip": "01952",
        "Address components": "105, Elm Street, Salisbury, Essex County, Massachusetts, United States, 01952, 1803",
        "Street": "Elm Street",
        "Street number": "105",
        "CITY": "SALISBURY",
        "City": "Salisbury",
        "A_A_B_C_D": "105 ELM ST SALISBURY MA 01952",
        "STATE": "MA",
        "State": "Massachusetts",
        "ADDR": "105 ELM ST",
        "Country": "United States",
        "PHON": "19784655491",
        "ZIP9": "01952",
        "title": "R & L LIQUORS"
      },
      "geometry": {
        "coordinates": [
          -70.878721,
          42.843787
        ],
        "type": "Point"
      },
      "id": "355a8a04d8e30aebdaa5f4a613c0f7c2"
    },
    {
      "type": "Feature",
      "properties": {
        "Zip": "02642",
        "Address components": "2475, Mid-Cape Highway, Eastham, Barnstable County, Massachusetts, United States, 02642",
        "Street": "Mid-Cape Highway",
        "Street number": "2475",
        "CITY": "EASTHAM",
        "City": "Eastham",
        "A_A_B_C_D": "2475 MA 6A EASTHAM MA 02642",
        "STATE": "MA",
        "State": "Massachusetts",
        "ADDR": "2475 MA 6A",
        "Country": "United States",
        "PHON": "15082550530",
        "ZIP9": "02642",
        "title": "EASTHAM SUPERETTE"
      },
      "geometry": {
        "coordinates": [
          -69.973691,
          41.83
        ],
        "type": "Point"
      },
      "id": "39a32455108a73f31ec2d0b4a0bc95bf"
    },
    {
      "type": "Feature",
      "properties": {
        "Zip": "02134",
        "Address components": "103, Harvard Avenue, Brighton, Boston, Suffolk County, Massachusetts, United States, 02134, 2702",
        "Street": "Harvard Avenue",
        "Street number": "103",
        "CITY": "Allston",
        "City": "Boston",
        "A_A_B_C_D": "103 Harvard Ave Allston MA 02134",
        "STATE": "MA",
        "State": "Massachusetts",
        "ADDR": "103 Harvard Ave",
        "Country": "United States",
        "PHON": "6177825588",
        "ZIP9": "02134",
        "title": "Blanchards-Allston  Inc."
      },
      "geometry": {
        "coordinates": [
          -71.132188,
          42.352673
        ],
        "type": "Point"
      },
      "id": "3dc76e8feb50c107b3f23e22474e0c4b"
    },
    {
      "type": "Feature",
      "properties": {
        "Zip": "02657",
        "Address components": "189, Commercial Street, Provincetown, Barnstable County, Massachusetts, United States, 02657",
        "Street": "Commercial Street",
        "Street number": "189",
        "CITY": "PROVINCETOWN",
        "City": "Provincetown",
        "A_A_B_C_D": "183-189 COMMERCIAL STREET PROVINCETOWN MA 02657",
        "STATE": "MA",
        "State": "Massachusetts",
        "ADDR": "183-189 COMMERCIAL STREET",
        "Country": "United States",
        "PHON": "15084870773",
        "ZIP9": "02657",
        "title": "BUBALA S RESTAURANT"
      },
      "geometry": {
        "coordinates": [
          -70.189126,
          42.04848
        ],
        "type": "Point"
      },
      "id": "3e89d127ec9fabbe29373b19bf86bce8"
    },
    {
      "type": "Feature",
      "properties": {
        "Zip": "02048",
        "Address components": "280, School Street, Mansfield, Bristol County, Massachusetts, United States, 02048",
        "Street": "School Street",
        "Street number": "280",
        "CITY": "MANSFIELD",
        "City": "Mansfield",
        "A_A_B_C_D": "280 SCHOOL STREET MANSFIELD MA 02048",
        "STATE": "MA",
        "State": "Massachusetts",
        "ADDR": "280 SCHOOL STREET",
        "Country": "United States",
        "PHON": "15083396900",
        "ZIP9": "02048",
        "title": "WINES & MORE MANSFIELD"
      },
      "geometry": {
        "coordinates": [
          -71.229879,
          42.013262
        ],
        "type": "Point"
      },
      "id": "3f429d11d383981b0a84c6b41d3f2370"
    },
    {
      "type": "Feature",
      "properties": {
        "Zip": "02338",
        "Address components": "653, Monponsett Street, Halifax, Plymouth County, Massachusetts, United States, 02338, 1328",
        "Street": "Monponsett Street",
        "Street number": "653",
        "CITY": "HALIFAX",
        "City": "Halifax",
        "A_A_B_C_D": "653 MONPONSETT ST HALIFAX MA 02338",
        "STATE": "MA",
        "State": "Massachusetts",
        "ADDR": "653 MONPONSETT ST",
        "Country": "United States",
        "PHON": "17812947600",
        "ZIP9": "02338",
        "title": "TWIN LAKES LIQUOR"
      },
      "geometry": {
        "coordinates": [
          -70.844354,
          42.01607
        ],
        "type": "Point"
      },
      "id": "40ab03ce40a3960dd5b2f193dfae99f9"
    },
    {
      "type": "Feature",
      "properties": {
        "Zip": "01824",
        "Address components": "83, Parkhurst Road, Chelmsford, Middlesex County, Massachusetts, United States, 01824, 1500",
        "Street": "Parkhurst Road",
        "Street number": "83",
        "CITY": "CHELMSFORD",
        "City": "Chelmsford",
        "A_A_B_C_D": "83 PARKHURST ROAD CHELMSFORD MA 01824",
        "STATE": "MA",
        "State": "Massachusetts",
        "ADDR": "83 PARKHURST ROAD",
        "Country": "United States",
        "PHON": "19784523400",
        "ZIP9": "01824",
        "title": "DRUM HILL LIQ MART"
      },
      "geometry": {
        "coordinates": [
          -71.358963,
          42.624895
        ],
        "type": "Point"
      },
      "id": "4168018f9c0ede2a3f2f091c72ac64dc"
    },
    {
      "type": "Feature",
      "properties": {
        "Zip": "01923",
        "Address components": "100, Independence Way, Danvers, Essex County, Massachusetts, United States, 01923",
        "Street": "Independence Way",
        "Street number": "100",
        "CITY": "DANVERS",
        "City": "Danvers",
        "A_A_B_C_D": "100 INDEPENDENCE WAY DANVERS MA 01923",
        "STATE": "MA",
        "State": "Massachusetts",
        "ADDR": "100 INDEPENDENCE WAY",
        "Country": "United States",
        "PHON": "19787391415",
        "ZIP9": "01923",
        "title": "TOTAL WINE  SPRTS & BEER"
      },
      "geometry": {
        "coordinates": [
          -70.939249,
          42.552623
        ],
        "type": "Point"
      },
      "id": "46e3a7f1efec7c307b5fbb230ee11ee4"
    },
    {
      "type": "Feature",
      "properties": {
        "Zip": "02155",
        "Address components": "156, Mystic Avenue, South Medford, Medford, Middlesex County, Massachusetts, United States, 02155",
        "Street": "Mystic Avenue",
        "Street number": "156",
        "CITY": "Medford",
        "City": "Medford",
        "A_A_B_C_D": "156 Mystic Ave Medford MA 02155",
        "STATE": "MA",
        "State": "Massachusetts",
        "ADDR": "156 Mystic Ave",
        "Country": "United States",
        "PHON": "0",
        "ZIP9": "02155",
        "title": "Atlas Liquor Corp."
      },
      "geometry": {
        "coordinates": [
          -71.104791,
          42.410022
        ],
        "type": "Point"
      },
      "id": "481e90d279969d41fc5fef14a991b14e"
    },
    {
      "type": "Feature",
      "properties": {
        "Zip": "02631",
        "Address components": "15, Lower Road, Brewster, Brewster, Brewster Town, Barnstable County, Massachusetts, United States, 02631",
        "Street": "Lower Road",
        "Street number": "15",
        "CITY": "BREWSTER",
        "City": "Brewster",
        "A_A_B_C_D": "15 LOWER ROAD BREWSTER MA 02631",
        "STATE": "MA",
        "State": "Massachusetts",
        "ADDR": "15 LOWER ROAD",
        "Country": "United States",
        "PHON": "15088962324",
        "ZIP9": "02631",
        "title": "LUKES OF BREWSTER"
      },
      "geometry": {
        "coordinates": [
          -70.112508,
          41.755275
        ],
        "type": "Point"
      },
      "id": "49384487e5241142a170f54830237173"
    },
    {
      "type": "Feature",
      "properties": {
        "Zip": "01545",
        "Address components": "87, Boston Turnpike, Shrewsbury, Worcester County, Massachusetts, United States, 01545",
        "Street": "Boston Turnpike",
        "Street number": "87",
        "CITY": "SHREWSBURY",
        "City": "Shrewsbury",
        "A_A_B_C_D": "87 BOSTON TURNPIKE SHREWSBURY MA 01545",
        "STATE": "MA",
        "State": "Massachusetts",
        "ADDR": "87 BOSTON TURNPIKE",
        "Country": "United States",
        "PHON": "0",
        "ZIP9": "01545",
        "title": "TOTAL WINE & MORE"
      },
      "geometry": {
        "coordinates": [
          -71.749874,
          42.27512
        ],
        "type": "Point"
      },
      "id": "4b1252d84b1211fa4077247524fc08fb"
    },
    {
      "type": "Feature",
      "properties": {
        "Zip": "02114",
        "Address components": "210, Cambridge Street, Beacon Hill, Boston, Suffolk County, Massachusetts, United States, 02114, 2707",
        "Street": "Cambridge Street",
        "Street number": "210",
        "CITY": "Boston",
        "City": "Boston",
        "A_A_B_C_D": "210 Cambridge St Boston MA 02114",
        "STATE": "MA",
        "State": "Massachusetts",
        "ADDR": "210 Cambridge St",
        "Country": "United States",
        "PHON": "0",
        "ZIP9": "02114",
        "title": "Simmon s Liquors"
      },
      "geometry": {
        "coordinates": [
          -71.066096,
          42.36092
        ],
        "type": "Point"
      },
      "id": "4c46b7f4740973caee8725dab6b5395a"
    },
    {
      "type": "Feature",
      "properties": {
        "Zip": "02139",
        "Address components": "502, Massachusetts Avenue, Cambridgeport, Cambridge, Middlesex County, Massachusetts, United States, 02139",
        "Street": "Massachusetts Avenue",
        "Street number": "502",
        "CITY": "Cambridge",
        "City": "Cambridge",
        "A_A_B_C_D": "502 Massachusetts Ave Cambridge MA 02139",
        "STATE": "MA",
        "State": "Massachusetts",
        "ADDR": "502 Massachusetts Ave",
        "Country": "United States",
        "PHON": "6175761900",
        "ZIP9": "02139",
        "title": "Viale"
      },
      "geometry": {
        "coordinates": [
          -71.101806,
          42.364006
        ],
        "type": "Point"
      },
      "id": "524335072770b328f3aa281dd401d810"
    },
    {
      "type": "Feature",
      "properties": {
        "Zip": "01830",
        "Address components": "56, Locust Street, Haverhill, Essex County, Massachusetts, United States, 01830, 5618",
        "Street": "Locust Street",
        "Street number": "56",
        "CITY": "HAVERHILL",
        "City": "Haverhill",
        "A_A_B_C_D": "56 LOCUST STREET HAVERHILL MA 01830",
        "STATE": "MA",
        "State": "Massachusetts",
        "ADDR": "56 LOCUST STREET",
        "Country": "United States",
        "PHON": "17575973356",
        "ZIP9": "01830",
        "title": "DOWNTOWN WINE & SPIRITS"
      },
      "geometry": {
        "coordinates": [
          -71.084181,
          42.775772
        ],
        "type": "Point"
      },
      "id": "5627a936d929cf22785ed0165e0d2a29"
    },
    {
      "type": "Feature",
      "properties": {
        "Zip": "02644",
        "Address components": "263, Cotuit Road, Forestdale, Sandwich, Sandwich, Barnstable County, Massachusetts, United States, 02644",
        "Street": "Cotuit Road",
        "Street number": "263",
        "CITY": "SANDWICH",
        "City": "Sandwich",
        "A_A_B_C_D": "263 COTUIT ROAD SANDWICH MA 02563",
        "STATE": "MA",
        "State": "Massachusetts",
        "ADDR": "263 COTUIT ROAD",
        "Country": "United States",
        "PHON": "15084770753",
        "ZIP9": "02563",
        "title": "MEETING HOUSE PKG & VARIE"
      },
      "geometry": {
        "coordinates": [
          -70.484396,
          41.701238
        ],
        "type": "Point"
      },
      "id": "5a0a0624386c927bb9afa5fc3b4e7c6d"
    },
    {
      "type": "Feature",
      "properties": {
        "Zip": "01915",
        "Address components": "588, Cabot Street, Beverly, Essex County, Massachusetts, United States, 01915, 2550",
        "Street": "Cabot Street",
        "Street number": "588",
        "CITY": "BEVERLY",
        "City": "Beverly",
        "A_A_B_C_D": "588 CABOT STREET BEVERLY MA 01915",
        "STATE": "MA",
        "State": "Massachusetts",
        "ADDR": "588 CABOT STREET",
        "Country": "United States",
        "PHON": "19785240300",
        "ZIP9": "01915",
        "title": "HENRY S WINE CELLAR"
      },
      "geometry": {
        "coordinates": [
          -70.893886,
          42.571658
        ],
        "type": "Point"
      },
      "id": "5ca4848a729338090d46b93c16c45ca6"
    },
    {
      "type": "Feature",
      "properties": {
        "Zip": "02129",
        "Address components": "7, 50, Terminal Street, Charlestown, Boston, Suffolk County, Massachusetts, United States, 02129",
        "Street": "Terminal Street",
        "Street number": "50",
        "CITY": "Charlestown",
        "City": "Boston",
        "A_A_B_C_D": "50 Terminal St.  Building 1  Unit 7 Charlestown MA 02129",
        "STATE": "MA",
        "State": "Massachusetts",
        "ADDR": "50 Terminal St.  Building 1  Unit 7",
        "Country": "United States",
        "PHON": "0",
        "ZIP9": "02129",
        "title": "Willie s Superbrew - Billback Accou"
      },
      "geometry": {
        "coordinates": [
          -71.060511,
          42.382369
        ],
        "type": "Point"
      },
      "id": "5d1f762bddbc1f1c2cc3c550f2f1d2fa"
    },
    {
      "type": "Feature",
      "properties": {
        "Zip": "01938",
        "Address components": "38, Central Street, Ipswich, Ipswich, Ipswich, Essex County, Massachusetts, United States, 01938, 1947",
        "Street": "Central Street",
        "Street number": "38",
        "CITY": "IPSWICH",
        "City": "Ipswich",
        "A_A_B_C_D": "38 CENTRAL ST IPSWICH MA 01938",
        "STATE": "MA",
        "State": "Massachusetts",
        "ADDR": "38 CENTRAL ST",
        "Country": "United States",
        "PHON": "19783565400",
        "ZIP9": "01938",
        "title": "A P MARCORELLE CO INC"
      },
      "geometry": {
        "coordinates": [
          -70.838876,
          42.680621
        ],
        "type": "Point"
      },
      "id": "60ca2d0e96a86e554d2d3da9c989bb52"
    },
    {
      "type": "Feature",
      "properties": {
        "Zip": "02144",
        "Address components": "1119, Broadway, Tufts, Somerville, Middlesex County, Massachusetts, United States, 02144",
        "Street": "Broadway",
        "Street number": "1119",
        "CITY": "Somerville",
        "City": "Somerville",
        "A_A_B_C_D": "1119 Broadway Somerville MA 02144",
        "STATE": "MA",
        "State": "Massachusetts",
        "ADDR": "1119 Broadway",
        "Country": "United States",
        "PHON": "6176284842",
        "ZIP9": "02144",
        "title": "Teele Square Liquors"
      },
      "geometry": {
        "coordinates": [
          -71.126571,
          42.403115
        ],
        "type": "Point"
      },
      "id": "62663361cf6a6be18b22e76c91620a83"
    },
    {
      "type": "Feature",
      "properties": {
        "Zip": "02453",
        "Address components": "894, Main Street, Banks Square, Waltham, Middlesex County, Massachusetts, United States, 02453",
        "Street": "Main Street",
        "Street number": "894",
        "CITY": "Waltham",
        "City": "Waltham",
        "A_A_B_C_D": "894-898 Main Street Waltham MA 02453",
        "STATE": "MA",
        "State": "Massachusetts",
        "ADDR": "894-898 Main Street",
        "Country": "United States",
        "PHON": "0",
        "ZIP9": "02453",
        "title": "Gordons Waltham Liq Store"
      },
      "geometry": {
        "coordinates": [
          -71.247124,
          42.376151
        ],
        "type": "Point"
      },
      "id": "669fbbff1f7a4fecff2181bb46e3f752"
    },
    {
      "type": "Feature",
      "properties": {
        "Zip": "01862",
        "Address components": "199, Boston Road, North Billerica, Billerica, Middlesex County, Massachusetts, United States, 01862, 2328",
        "Street": "Boston Road",
        "Street number": "199",
        "CITY": "BILLERICA",
        "City": "Billerica",
        "A_A_B_C_D": "199 BOSTON RD UNITS 7&8 BILLERICA MA 01821",
        "STATE": "MA",
        "State": "Massachusetts",
        "ADDR": "199 BOSTON RD UNITS 7&8",
        "Country": "United States",
        "PHON": "19786674773",
        "ZIP9": "01821",
        "title": "LINCOLN LIQS BILLERICA"
      },
      "geometry": {
        "coordinates": [
          -71.28928,
          42.580708
        ],
        "type": "Point"
      },
      "id": "66c93646074ebc1ec629865e2405f41e"
    },
    {
      "type": "Feature",
      "properties": {
        "Zip": "01915",
        "Address components": "311, Cabot Street, Beverly, Essex County, Massachusetts, United States, 01915",
        "Street": "Cabot Street",
        "Street number": "311",
        "CITY": "BEVERLY",
        "City": "Beverly",
        "A_A_B_C_D": "311 CABOT STREET BEVERLY MA 01915",
        "STATE": "MA",
        "State": "Massachusetts",
        "ADDR": "311 CABOT STREET",
        "Country": "United States",
        "PHON": "19785244868",
        "ZIP9": "01915",
        "title": "ONE STOP MARKET II"
      },
      "geometry": {
        "coordinates": [
          -70.87828,
          42.552928
        ],
        "type": "Point"
      },
      "id": "673c714eb8711490bec3587055f52b51"
    },
    {
      "type": "Feature",
      "properties": {
        "Zip": "02144",
        "Address components": "716, Broadway, Powder House Square, Somerville, Middlesex County, Massachusetts, United States, 02144",
        "Street": "Broadway",
        "Street number": "716",
        "CITY": "Somerville",
        "City": "Somerville",
        "A_A_B_C_D": "716 Broadway Somerville MA 02144",
        "STATE": "MA",
        "State": "Massachusetts",
        "ADDR": "716 Broadway",
        "Country": "United States",
        "PHON": "6176239500",
        "ZIP9": "02144",
        "title": "Ball Square Liq"
      },
      "geometry": {
        "coordinates": [
          -71.112706,
          42.399854
        ],
        "type": "Point"
      },
      "id": "67df683e9b68c277f3530c2e764f06ce"
    },
    {
      "type": "Feature",
      "properties": {
        "Zip": "02554",
        "Address components": "1, North Beach Street, Brant Point, Nantucket, Nantucket County, Massachusetts, United States, 02554",
        "Street": "North Beach Street",
        "Street number": "1",
        "CITY": "NANTUCKET",
        "City": "Nantucket",
        "A_A_B_C_D": "1 N. BEACH STREET NANTUCKET MA 02554",
        "STATE": "MA",
        "State": "Massachusetts",
        "ADDR": "1 N. BEACH STREET",
        "Country": "United States",
        "PHON": "15082282755",
        "ZIP9": "02554",
        "title": "EPERNAY"
      },
      "geometry": {
        "coordinates": [
          -70.098932,
          41.288346
        ],
        "type": "Point"
      },
      "id": "6a86609f5784301674ab2eb751029d0e"
    },
    {
      "type": "Feature",
      "properties": {
        "Zip": "02145",
        "Address components": "88, Broadway, East Somerville, Somerville, Middlesex County, Massachusetts, United States, 02145, 3233",
        "Street": "Broadway",
        "Street number": "88",
        "CITY": "Somerville",
        "City": "Somerville",
        "A_A_B_C_D": "88 Broadway Somerville MA 02145",
        "STATE": "MA",
        "State": "Massachusetts",
        "ADDR": "88 Broadway",
        "Country": "United States",
        "PHON": "6177641882",
        "ZIP9": "02145",
        "title": "Sullivan Square Liquors"
      },
      "geometry": {
        "coordinates": [
          -71.082693,
          42.387039
        ],
        "type": "Point"
      },
      "id": "6af67df6c21862efdf757cd84b8b243e"
    },
    {
      "type": "Feature",
      "properties": {
        "Zip": "02111",
        "Address components": "39, Temple Place, Downtown Crossing, Boston, Suffolk County, Massachusetts, United States, 02111",
        "Street": "Temple Place",
        "Street number": "39",
        "CITY": "Boston",
        "City": "Boston",
        "A_A_B_C_D": "39 Temple Place Boston MA 02111",
        "STATE": "MA",
        "State": "Massachusetts",
        "ADDR": "39 Temple Place",
        "Country": "United States",
        "PHON": "0",
        "ZIP9": "02111",
        "title": "Gordon s Fine Wine & Liq"
      },
      "geometry": {
        "coordinates": [
          -71.06208,
          42.354945
        ],
        "type": "Point"
      },
      "id": "6b85d111c41732b576ae95ff7d097ba3"
    },
    {
      "type": "Feature",
      "properties": {
        "Zip": "01532",
        "Address components": "9102, Shops Way, Northborough, Northborough, Worcester County, Massachusetts, United States, 01532",
        "Street": "Shops Way",
        "Street number": "9102",
        "CITY": "NORTHBOROUGH",
        "City": "Northborough",
        "A_A_B_C_D": "9102-9104 SHOPS WAY NORTHBOROUGH MA 01532",
        "STATE": "MA",
        "State": "Massachusetts",
        "ADDR": "9102-9104 SHOPS WAY",
        "Country": "United States",
        "PHON": "5089361900",
        "ZIP9": "01532",
        "title": "WEGMAN S # 58/ BEER"
      },
      "geometry": {
        "coordinates": [
          -71.670546,
          42.29117
        ],
        "type": "Point"
      },
      "id": "710a000371cbea1e839e45a7a3426bc1"
    },
    {
      "type": "Feature",
      "properties": {
        "Zip": "02118",
        "Address components": "495, Massachusetts Avenue, South End, Boston, Suffolk County, Massachusetts, United States, 02118",
        "Street": "Massachusetts Avenue",
        "Street number": "495",
        "CITY": "Boston",
        "City": "Boston",
        "A_A_B_C_D": "493-495 Mass Ave Boston MA 02118",
        "STATE": "MA",
        "State": "Massachusetts",
        "ADDR": "493-495 Mass Ave",
        "Country": "United States",
        "PHON": "0",
        "ZIP9": "02118",
        "title": "Parish Cafe II"
      },
      "geometry": {
        "coordinates": [
          -71.080779,
          42.339441
        ],
        "type": "Point"
      },
      "id": "725f7e25cb16673bb0c8eb8ec99c44e9"
    },
    {
      "type": "Feature",
      "properties": {
        "Zip": "02118",
        "Address components": "348, Harrison Avenue, South End, Boston, Suffolk County, Massachusetts, United States, 02118",
        "Street": "Harrison Avenue",
        "Street number": "348",
        "CITY": "Boston",
        "City": "Boston",
        "A_A_B_C_D": "348 Harrison Ave Boston MA 02118",
        "STATE": "MA",
        "State": "Massachusetts",
        "ADDR": "348 Harrison Ave",
        "Country": "United States",
        "PHON": "6179041000",
        "ZIP9": "02118",
        "title": "Whole Foods Market - Boston"
      },
      "geometry": {
        "coordinates": [
          -71.062781,
          42.345449
        ],
        "type": "Point"
      },
      "id": "738c78c672e47ae367ef3aef676bf392"
    },
    {
      "type": "Feature",
      "properties": {
        "Zip": "02139",
        "Address components": "340, River Street, Cambridgeport, Cambridge, Middlesex County, Massachusetts, United States, 02139",
        "Street": "River Street",
        "Street number": "340",
        "CITY": "Cambridge",
        "City": "Cambridge",
        "A_A_B_C_D": "340 River St. Cambridge MA 02139",
        "STATE": "MA",
        "State": "Massachusetts",
        "ADDR": "340 River St.",
        "Country": "United States",
        "PHON": "6178766990",
        "ZIP9": "02139",
        "title": "Whole Foods - Cambridge"
      },
      "geometry": {
        "coordinates": [
          -71.113936,
          42.361007
        ],
        "type": "Point"
      },
      "id": "73ca5064e7dc3fbc4e55b498065af74a"
    },
    {
      "type": "Feature",
      "properties": {
        "Zip": "02139",
        "Address components": "600, Massachusetts Avenue, Cambridgeport, Cambridge, Middlesex County, Massachusetts, United States, 02139",
        "Street": "Massachusetts Avenue",
        "Street number": "600",
        "CITY": "Cambridge",
        "City": "Cambridge",
        "A_A_B_C_D": "600 Mass Ave Cambridge MA 02139",
        "STATE": "MA",
        "State": "Massachusetts",
        "ADDR": "600 Mass Ave",
        "Country": "United States",
        "PHON": "6176618629",
        "ZIP9": "02139",
        "title": "Parkingway Wine Inc"
      },
      "geometry": {
        "coordinates": [
          -71.103298,
          42.364644
        ],
        "type": "Point"
      },
      "id": "74122fc1f0e506aaf8eb992401543faf"
    },
    {
      "type": "Feature",
      "properties": {
        "Zip": "01915",
        "Address components": "23, Enon Street, Beverly, Essex County, Massachusetts, United States, 01915, 1171",
        "Street": "Enon Street",
        "Street number": "23",
        "CITY": "BEVERLY",
        "City": "Beverly",
        "A_A_B_C_D": "23 ENON ST BEVERLY MA 01915",
        "STATE": "MA",
        "State": "Massachusetts",
        "ADDR": "23 ENON ST",
        "Country": "United States",
        "PHON": "19789221550",
        "ZIP9": "01915",
        "title": "DEPOT LIQUORS"
      },
      "geometry": {
        "coordinates": [
          -70.884198,
          42.585316
        ],
        "type": "Point"
      },
      "id": "7533d4242c58791b772a9eef759d8c44"
    },
    {
      "type": "Feature",
      "properties": {
        "Zip": "02467",
        "Address components": "200, Boylston Street, Chestnut Hill, Newton, Middlesex County, Massachusetts, United States, 02467, 2008",
        "Street": "Boylston Street",
        "Street number": "200",
        "CITY": "Chestnut Hill",
        "City": "Newton",
        "A_A_B_C_D": "200 Boylston Street Chestnut Hill MA 02467",
        "STATE": "MA",
        "State": "Massachusetts",
        "ADDR": "200 Boylston Street",
        "Country": "United States",
        "PHON": "0",
        "ZIP9": "02467",
        "title": "Wegman s Massachusetts"
      },
      "geometry": {
        "coordinates": [
          -71.175207,
          42.318832
        ],
        "type": "Point"
      },
      "id": "776248d9f1554573e6e0a573f738482d"
    },
    {
      "type": "Feature",
      "properties": {
        "Zip": "02143",
        "Address components": "288, Beacon Street, Ward Two, Somerville, Middlesex County, Massachusetts, United States, 02143, 3510",
        "Street": "Beacon Street",
        "Street number": "288",
        "CITY": "Somerville",
        "City": "Somerville",
        "A_A_B_C_D": "288 Beacon St Somerville MA 02143",
        "STATE": "MA",
        "State": "Massachusetts",
        "ADDR": "288 Beacon St",
        "Country": "United States",
        "PHON": "6175471644",
        "ZIP9": "02143",
        "title": "Seven Hills Wine & Spirit"
      },
      "geometry": {
        "coordinates": [
          -71.112845,
          42.383293
        ],
        "type": "Point"
      },
      "id": "77ae6794159f7e49514a360d8b770a20"
    },
    {
      "type": "Feature",
      "properties": {
        "Zip": "02152",
        "Address components": "3, Somerset Avenue, Winthrop, Suffolk County, Massachusetts, United States, 02152",
        "Street": "Somerset Avenue",
        "Street number": "3",
        "CITY": "Winthrop",
        "City": "Winthrop",
        "A_A_B_C_D": "3 Somerset Ave Winthrop MA 02152",
        "STATE": "MA",
        "State": "Massachusetts",
        "ADDR": "3 Somerset Ave",
        "Country": "United States",
        "PHON": "6178460005",
        "ZIP9": "02152",
        "title": "Swetts Mkt"
      },
      "geometry": {
        "coordinates": [
          -70.987325,
          42.37495
        ],
        "type": "Point"
      },
      "id": "7956fa3b09b1691e77751266906edb12"
    },
    {
      "type": "Feature",
      "properties": {
        "Zip": "02657",
        "Address components": "225, Commercial Street, Provincetown, Barnstable County, Massachusetts, United States, 02657, 2135",
        "Street": "Commercial Street",
        "Street number": "225",
        "CITY": "PROVINCETOWN",
        "City": "Provincetown",
        "A_A_B_C_D": "225 COMMERCIAL STREET PROVINCETOWN MA 02657",
        "STATE": "MA",
        "State": "Massachusetts",
        "ADDR": "225 COMMERCIAL STREET",
        "Country": "United States",
        "PHON": "12025508812",
        "ZIP9": "02657",
        "title": "THE CANTEEN"
      },
      "geometry": {
        "coordinates": [
          -70.188121,
          42.049654
        ],
        "type": "Point"
      },
      "id": "7e15a920e899520713967409c843e762"
    },
    {
      "type": "Feature",
      "properties": {
        "Zip": "02139",
        "Address components": "910, Massachusetts Avenue, Riverside, Cambridge, Middlesex County, Massachusetts, United States, 02139",
        "Street": "Massachusetts Avenue",
        "Street number": "910",
        "CITY": "Cambridge",
        "City": "Cambridge",
        "A_A_B_C_D": "910 Mass Ave Cambridge MA 02139",
        "STATE": "MA",
        "State": "Massachusetts",
        "ADDR": "910 Mass Ave",
        "Country": "United States",
        "PHON": "0",
        "ZIP9": "02139",
        "title": "Dana Hill Liquors"
      },
      "geometry": {
        "coordinates": [
          -71.108762,
          42.368259
        ],
        "type": "Point"
      },
      "id": "7ee5c2089cdee01e0e443dd9b6550d82"
    },
    {
      "type": "Feature",
      "properties": {
        "Zip": "01970",
        "Address components": "185, Essex Street, Salem, Essex County, Massachusetts, United States, 01970, 3726",
        "Street": "Essex Street",
        "Street number": "185",
        "CITY": "SALEM",
        "City": "Salem",
        "A_A_B_C_D": "185-189 ESSEX STREET SALEM MA 01970",
        "STATE": "MA",
        "State": "Massachusetts",
        "ADDR": "185-189 ESSEX STREET",
        "Country": "United States",
        "PHON": "19787452900",
        "ZIP9": "01970",
        "title": "PAMPLEMOUSSE"
      },
      "geometry": {
        "coordinates": [
          -70.893562,
          42.52158
        ],
        "type": "Point"
      },
      "id": "805703e99a3bf62d4790123c204d5527"
    },
    {
      "type": "Feature",
      "properties": {
        "Zip": "02090",
        "Address components": "338, Washington Street, Westwood, Norfolk County, Massachusetts, United States, 02090, 1829",
        "Street": "Washington Street",
        "Street number": "338",
        "CITY": "Westwood",
        "City": "Westwood",
        "A_A_B_C_D": "338 Washington St Westwood MA 02090",
        "STATE": "MA",
        "State": "Massachusetts",
        "ADDR": "338 Washington St",
        "Country": "United States",
        "PHON": "7813269303",
        "ZIP9": "02090",
        "title": "Roche Bros #104"
      },
      "geometry": {
        "coordinates": [
          -71.187832,
          42.217568
        ],
        "type": "Point"
      },
      "id": "83c5437d41d2df0d82e533e2338a7e4e"
    },
    {
      "type": "Feature",
      "properties": {
        "Zip": "02445",
        "Address components": "1024, Beacon Street, Brookline, Norfolk County, Massachusetts, United States, 02445",
        "Street": "Beacon Street",
        "Street number": "1024",
        "CITY": "Brookline",
        "City": "Brookline",
        "A_A_B_C_D": "1024 Beacon Street Brookline MA 02445",
        "STATE": "MA",
        "State": "Massachusetts",
        "ADDR": "1024 Beacon Street",
        "Country": "United States",
        "PHON": "6172777020",
        "ZIP9": "02445",
        "title": "The Wine Press"
      },
      "geometry": {
        "coordinates": [
          -71.107937,
          42.346127
        ],
        "type": "Point"
      },
      "id": "84b0319f82ce0168d88a093b5a5ac0b7"
    },
    {
      "type": "Feature",
      "properties": {
        "Zip": "02130",
        "Address components": "488, Centre Street, Jamaica Plain, Boston, Suffolk County, Massachusetts, United States, 02130, 2057",
        "Street": "Centre Street",
        "Street number": "488",
        "CITY": "Jamaica Plain",
        "City": "Boston",
        "A_A_B_C_D": "488 Centre Street Jamaica Plain MA 02130",
        "STATE": "MA",
        "State": "Massachusetts",
        "ADDR": "488 Centre Street",
        "Country": "United States",
        "PHON": "6175226416",
        "ZIP9": "02130",
        "title": "Streetcar"
      },
      "geometry": {
        "coordinates": [
          -71.112143,
          42.318462
        ],
        "type": "Point"
      },
      "id": "8532d5c6ec82ce848887a7bc6cb031e8"
    },
    {
      "type": "Feature",
      "properties": {
        "Zip": "02460",
        "Address components": "14, Austin Street, Newtonville, Newton, Middlesex County, Massachusetts, United States, 02460",
        "Street": "Austin Street",
        "Street number": "14",
        "CITY": "Newtonville",
        "City": "Newton",
        "A_A_B_C_D": "14 Austin Street Newtonville MA 02460",
        "STATE": "MA",
        "State": "Massachusetts",
        "ADDR": "14 Austin Street",
        "Country": "United States",
        "PHON": "16179160244",
        "ZIP9": "02460",
        "title": "Craft Beer Cellar - Newtonville"
      },
      "geometry": {
        "coordinates": [
          -71.207529,
          42.350337
        ],
        "type": "Point"
      },
      "id": "880d241857572da949139d5b9d081781"
    },
    {
      "type": "Feature",
      "properties": {
        "Zip": "02648",
        "Address components": "3858, Falmouth Road, Marstons Mills, Barnstable, Barnstable County, Massachusetts, United States, 02648",
        "Street": "Falmouth Road",
        "Street number": "3858",
        "CITY": "MARSTONS MILLS",
        "City": "Barnstable",
        "A_A_B_C_D": "3858 FALMOUTH ROAD MARSTONS MILLS MA 02648",
        "STATE": "MA",
        "State": "Massachusetts",
        "ADDR": "3858 FALMOUTH ROAD",
        "Country": "United States",
        "PHON": "15084205899",
        "ZIP9": "02648",
        "title": "COTUIT LIQUORS"
      },
      "geometry": {
        "coordinates": [
          -70.42536,
          41.649167
        ],
        "type": "Point"
      },
      "id": "8a6d17b3b27524de171b2efac0dad874"
    },
    {
      "type": "Feature",
      "properties": {
        "Zip": "02571",
        "Address components": "2421, Cranberry Highway, West Wareham, Wareham, Plymouth County, Massachusetts, United States, 02571",
        "Street": "Cranberry Highway",
        "Street number": "2421",
        "CITY": "WAREHAM",
        "City": "Wareham",
        "A_A_B_C_D": "2421 CRANBERRY HWY WAREHAM MA 02571",
        "STATE": "MA",
        "State": "Massachusetts",
        "ADDR": "2421 CRANBERRY HWY",
        "Country": "United States",
        "PHON": "17746780183",
        "ZIP9": "02571",
        "title": "WINES & MORE WAREHAM"
      },
      "geometry": {
        "coordinates": [
          -70.745653,
          41.775278
        ],
        "type": "Point"
      },
      "id": "8d2aa309a875fadbf44d5d4da0150f2e"
    },
    {
      "type": "Feature",
      "properties": {
        "Zip": "02148",
        "Address components": "271, Highland Avenue, Malden, Middlesex County, Massachusetts, United States, 02148",
        "Street": "Highland Avenue",
        "Street number": "271",
        "CITY": "Malden",
        "City": "Malden",
        "A_A_B_C_D": "271 Highland Ave Malden MA 02148",
        "STATE": "MA",
        "State": "Massachusetts",
        "ADDR": "271 Highland Ave",
        "Country": "United States",
        "PHON": "7813242776",
        "ZIP9": "02148",
        "title": "Pumpsy s Liquors"
      },
      "geometry": {
        "coordinates": [
          -71.080116,
          42.422518
        ],
        "type": "Point"
      },
      "id": "8dc0e5737abcd7fca0aa5dce64ee1bdb"
    },
    {
      "type": "Feature",
      "properties": {
        "Zip": "02360",
        "Address components": "183, Court Street, Plymouth, Plymouth County, Massachusetts, United States, 02360",
        "Street": "Court Street",
        "Street number": "183",
        "CITY": "PLYMOUTH",
        "City": "Plymouth",
        "A_A_B_C_D": "183 COURT STREET PLYMOUTH MA 02360",
        "STATE": "MA",
        "State": "Massachusetts",
        "ADDR": "183 COURT STREET",
        "Country": "United States",
        "PHON": "15087461943",
        "ZIP9": "02360",
        "title": "PIOPPIS PKG STORE"
      },
      "geometry": {
        "coordinates": [
          -70.675538,
          41.965176
        ],
        "type": "Point"
      },
      "id": "8f4623028016940a39521dd17720a7ca"
    },
    {
      "type": "Feature",
      "properties": {
        "Zip": "01950",
        "Address components": "202, Merrimac Street, Newburyport, Essex County, Massachusetts, United States, 01950, 2212",
        "Street": "Merrimac Street",
        "Street number": "202",
        "CITY": "NEWBURYPORT",
        "City": "Newburyport",
        "A_A_B_C_D": "202 MERRIMAC ST NEWBURYPORT MA 01950",
        "STATE": "MA",
        "State": "Massachusetts",
        "ADDR": "202 MERRIMAC ST",
        "Country": "United States",
        "PHON": "19784624451",
        "ZIP9": "01950",
        "title": "LEARYS FINE WINE & SPIRIT"
      },
      "geometry": {
        "coordinates": [
          -70.879116,
          42.815752
        ],
        "type": "Point"
      },
      "id": "9046f7645642a271b88d1b05dc2be96c"
    },
    {
      "type": "Feature",
      "properties": {
        "Zip": "02134",
        "Address components": "370, Western Avenue, Allston, Boston, Suffolk County, Massachusetts, United States, 02134",
        "Street": "Western Avenue",
        "Street number": "370",
        "CITY": "Brighton",
        "City": "Boston",
        "A_A_B_C_D": "370 Western Avenue Brighton MA 02134",
        "STATE": "MA",
        "State": "Massachusetts",
        "ADDR": "370 Western Avenue",
        "Country": "United States",
        "PHON": "6177832017",
        "ZIP9": "02134",
        "title": "Wine Shop"
      },
      "geometry": {
        "coordinates": [
          -71.137514,
          42.360964
        ],
        "type": "Point"
      },
      "id": "94b4a68d96ca4c6426b13eb851c0a929"
    },
    {
      "type": "Feature",
      "properties": {
        "Zip": "02130",
        "Address components": "741, Centre Street, Jamaica Plain, Boston, Suffolk County, Massachusetts, United States, 02130, 2520",
        "Street": "Centre Street",
        "Street number": "741",
        "CITY": "Jamaica Plain",
        "City": "Boston",
        "A_A_B_C_D": "741 Centre St Jamaica Plain MA 02130",
        "STATE": "MA",
        "State": "Massachusetts",
        "ADDR": "741 Centre St",
        "Country": "United States",
        "PHON": "6175229300",
        "ZIP9": "02130",
        "title": "Blanchards-J P  Inc."
      },
      "geometry": {
        "coordinates": [
          -71.115003,
          42.310864
        ],
        "type": "Point"
      },
      "id": "9541d0c744acd5b59f7b2e846e411c7e"
    },
    {
      "type": "Feature",
      "properties": {
        "Zip": "02332",
        "Address components": "632, Summer Street, Duxbury, Duxbury, Plymouth County, Massachusetts, United States, 02332",
        "Street": "Summer Street",
        "Street number": "632",
        "CITY": "DUXBURY",
        "City": "Duxbury",
        "A_A_B_C_D": "632 SUMMER STREET DUXBURY MA 02331",
        "STATE": "MA",
        "State": "Massachusetts",
        "ADDR": "632 SUMMER STREET",
        "Country": "United States",
        "PHON": "17815852676",
        "ZIP9": "02331",
        "title": "OSBORN S STORE"
      },
      "geometry": {
        "coordinates": [
          -70.757036,
          42.045696
        ],
        "type": "Point"
      },
      "id": "98a3ff99698bffc9e9f7af209c3b331a"
    },
    {
      "type": "Feature",
      "properties": {
        "Zip": "02215",
        "Address components": "516, Commonwealth Avenue, Fenway/Kenmore, Boston, Suffolk County, Massachusetts, United States, 02215, 2606",
        "Street": "Commonwealth Avenue",
        "Street number": "516",
        "CITY": "Boston",
        "City": "Boston",
        "A_A_B_C_D": "516 Commonwealth Ave Boston MA 02215",
        "STATE": "MA",
        "State": "Massachusetts",
        "ADDR": "516 Commonwealth Ave",
        "Country": "United States",
        "PHON": "0",
        "ZIP9": "02215",
        "title": "Wine Gallery - Boston (Commonwealth"
      },
      "geometry": {
        "coordinates": [
          -71.095831,
          42.348574
        ],
        "type": "Point"
      },
      "id": "9e07a8cb08af6dc6ea08ff2edeb972a0"
    },
    {
      "type": "Feature",
      "properties": {
        "Zip": "01960",
        "Address components": "177, Andover Street, Peabody, Essex County, Massachusetts, United States, 01960",
        "Street": "Andover Street",
        "Street number": "177",
        "CITY": "PEABODY",
        "City": "Peabody",
        "A_A_B_C_D": "175-177 ANDOVER ST PEABODY MA 01960",
        "STATE": "MA",
        "State": "Massachusetts",
        "ADDR": "175-177 ANDOVER ST",
        "Country": "United States",
        "PHON": "19785322330",
        "ZIP9": "01960",
        "title": "PEA RTE 114 LIQUORS"
      },
      "geometry": {
        "coordinates": [
          -70.941645,
          42.543392
        ],
        "type": "Point"
      },
      "id": "9e4f50fd6a48e6c52dd8baa0c4b0c3cb"
    },
    {
      "type": "Feature",
      "properties": {
        "Zip": "02081",
        "Address components": "262, Main Street, Walpole, Walpole, Norfolk County, Massachusetts, United States, 02081, 4031",
        "Street": "Main Street",
        "Street number": "262",
        "CITY": "Walpole",
        "City": "Walpole",
        "A_A_B_C_D": "262 Main St Walpole MA 02081",
        "STATE": "MA",
        "State": "Massachusetts",
        "ADDR": "262 Main St",
        "Country": "United States",
        "PHON": "5086680193",
        "ZIP9": "02081",
        "title": "Sams Package"
      },
      "geometry": {
        "coordinates": [
          -71.233917,
          42.164982
        ],
        "type": "Point"
      },
      "id": "a1b7c9242a726d6d12783ccb5dd8363f"
    },
    {
      "type": "Feature",
      "properties": {
        "Zip": "01844",
        "Address components": "27, Pleasant Valley Street, Methuen, Essex County, Massachusetts, United States, 01844",
        "Street": "Pleasant Valley Street",
        "Street number": "27",
        "CITY": "METHUEN",
        "City": "Methuen",
        "A_A_B_C_D": "27 PLEASANT VALLEY STREET METHUEN MA 01844",
        "STATE": "MA",
        "State": "Massachusetts",
        "ADDR": "27 PLEASANT VALLEY STREET",
        "Country": "United States",
        "PHON": "19786830361",
        "ZIP9": "01844",
        "title": "MANN ORCHARDS"
      },
      "geometry": {
        "coordinates": [
          -71.16403,
          42.740749
        ],
        "type": "Point"
      },
      "id": "a5bb3f68f1a713880e5c082f7237084f"
    },
    {
      "type": "Feature",
      "properties": {
        "Zip": "02360",
        "Address components": "164, South Street, Plymouth, Plymouth County, Massachusetts, United States, 02360",
        "Street": "South Street",
        "Street number": "164",
        "CITY": "PLYMOUTH",
        "City": "Plymouth",
        "A_A_B_C_D": "164 SOUTH STREET PLYMOUTH MA 02360",
        "STATE": "MA",
        "State": "Massachusetts",
        "ADDR": "164 SOUTH STREET",
        "Country": "United States",
        "PHON": "15087325050",
        "ZIP9": "02360",
        "title": "MAYFLOWER WINE & SPIRITS"
      },
      "geometry": {
        "coordinates": [
          -70.656953,
          41.938586
        ],
        "type": "Point"
      },
      "id": "a73b309bc4c8b7485cd80b1dea6610b5"
    },
    {
      "type": "Feature",
      "properties": {
        "Zip": "02143",
        "Address components": "14, McGrath Highway, East Cambridge, Somerville, Middlesex County, Massachusetts, United States, 02143",
        "Street": "McGrath Highway",
        "Street number": "14",
        "CITY": "Somerville",
        "City": "Somerville",
        "A_A_B_C_D": "14 Mcgrath Highway Somerville MA 02143",
        "STATE": "MA",
        "State": "Massachusetts",
        "ADDR": "14 Mcgrath Highway",
        "Country": "United States",
        "PHON": "6173359688",
        "ZIP9": "02143",
        "title": "Distinct Beer & Wine"
      },
      "geometry": {
        "coordinates": [
          -71.084836,
          42.373791
        ],
        "type": "Point"
      },
      "id": "a8ea65285f5002c2a0fe894a08af2e30"
    },
    {
      "type": "Feature",
      "properties": {
        "Zip": "01545",
        "Address components": "193, Boston Turnpike, Shrewsbury, Worcester County, Massachusetts, United States, 01545",
        "Street": "Boston Turnpike",
        "Street number": "193",
        "CITY": "SHREWSBURY",
        "City": "Shrewsbury",
        "A_A_B_C_D": "193 BOSTON TURNPIKE SHREWSBURY MA 01545",
        "STATE": "MA",
        "State": "Massachusetts",
        "ADDR": "193 BOSTON TURNPIKE",
        "Country": "United States",
        "PHON": "5083587700",
        "ZIP9": "01545",
        "title": "WHOLE FOODS - SHREW(BEER)"
      },
      "geometry": {
        "coordinates": [
          -71.746754,
          42.276035
        ],
        "type": "Point"
      },
      "id": "a96f582d662cb1e3eb2726918d4c11c6"
    },
    {
      "type": "Feature",
      "properties": {
        "Zip": "02149",
        "Address components": "11, Mystic View Road, Everett, Middlesex County, Massachusetts, United States, 02149",
        "Street": "Mystic View Road",
        "Street number": "11",
        "CITY": "Everett",
        "City": "Everett",
        "A_A_B_C_D": "11 Mystic View Road Everett MA 02149",
        "STATE": "MA",
        "State": "Massachusetts",
        "ADDR": "11 Mystic View Road",
        "Country": "United States",
        "PHON": "3015470110",
        "ZIP9": "02149",
        "title": "Total Wine #1702 - Everett"
      },
      "geometry": {
        "coordinates": [
          -71.068418,
          42.399176
        ],
        "type": "Point"
      },
      "id": "aa10a49c34cbc5b1e4f4d3ce1e713095"
    },
    {
      "type": "Feature",
      "properties": {
        "Zip": "02108",
        "Address components": "55, Union Street, Downtown, Boston, Suffolk County, Massachusetts, United States, 02108",
        "Street": "Union Street",
        "Street number": "55",
        "CITY": "Boston",
        "City": "Boston",
        "A_A_B_C_D": "55 Union Street Boston MA 02108",
        "STATE": "MA",
        "State": "Massachusetts",
        "ADDR": "55 Union Street",
        "Country": "United States",
        "PHON": "6172272098",
        "ZIP9": "02108",
        "title": "Bell In Hand"
      },
      "geometry": {
        "coordinates": [
          -71.057078,
          42.361549
        ],
        "type": "Point"
      },
      "id": "ae626d0b0ea9253ba9db9b706a49500f"
    },
    {
      "type": "Feature",
      "properties": {
        "Zip": "01886",
        "Address components": "142, Littleton Road, Westford, Middlesex County, Massachusetts, United States, 01886, 3154",
        "Street": "Littleton Road",
        "Street number": "142",
        "CITY": "WESTFORD",
        "City": "Westford",
        "A_A_B_C_D": "142 LITTLETON ROAD WESTFORD MA 01886",
        "STATE": "MA",
        "State": "Massachusetts",
        "ADDR": "142 LITTLETON ROAD",
        "Country": "United States",
        "PHON": "17813253709",
        "ZIP9": "01886",
        "title": "CRAFT BEER CELLAR"
      },
      "geometry": {
        "coordinates": [
          -71.41834,
          42.569155
        ],
        "type": "Point"
      },
      "id": "ae7fe8e7b16aca7c59dbb1beaa9c2c85"
    },
    {
      "type": "Feature",
      "properties": {
        "Zip": "02144",
        "Address components": "225, Elm Street, Davis Square, Somerville, Middlesex County, Massachusetts, United States, 02144",
        "Street": "Elm Street",
        "Street number": "225",
        "CITY": "Somerville",
        "City": "Somerville",
        "A_A_B_C_D": "225 Elm St Somerville MA 02144",
        "STATE": "MA",
        "State": "Massachusetts",
        "ADDR": "225 Elm St",
        "Country": "United States",
        "PHON": "0",
        "ZIP9": "02144",
        "title": "Downtown Wine & Spirits"
      },
      "geometry": {
        "coordinates": [
          -71.121138,
          42.394643
        ],
        "type": "Point"
      },
      "id": "b09e65d3f7c654fdfa29c991bfc2de24"
    },
    {
      "type": "Feature",
      "properties": {
        "Zip": "01824",
        "Address components": "10, Summer Street, Chelmsford, Middlesex County, Massachusetts, United States, 01824",
        "Street": "Summer Street",
        "Street number": "10",
        "CITY": "CHELMSFORD",
        "City": "Chelmsford",
        "A_A_B_C_D": "10 SUMMER ST CHELMSFORD MA 01824",
        "STATE": "MA",
        "State": "Massachusetts",
        "ADDR": "10 SUMMER ST",
        "Country": "United States",
        "PHON": "19782562711",
        "ZIP9": "01824",
        "title": "LINCOLN LIQS CHELMSFORD"
      },
      "geometry": {
        "coordinates": [
          -71.348804,
          42.59497
        ],
        "type": "Point"
      },
      "id": "b5882e30defa8fce7d2b2c79a4dd736d"
    },
    {
      "type": "Feature",
      "properties": {
        "Zip": "02128",
        "Address components": "328, Sumner Street, Jeffries Point, Boston, Suffolk County, Massachusetts, United States, 02128, 2124",
        "Street": "Sumner Street",
        "Street number": "328",
        "CITY": "East Boston",
        "City": "Boston",
        "A_A_B_C_D": "326-328 Sumner Street East Boston MA 02128",
        "STATE": "MA",
        "State": "Massachusetts",
        "ADDR": "326-328 Sumner Street",
        "Country": "United States",
        "PHON": "6175691695",
        "ZIP9": "02128",
        "title": "Vine & Barley"
      },
      "geometry": {
        "coordinates": [
          -71.03595,
          42.36737
        ],
        "type": "Point"
      },
      "id": "b58fa1872b2a7dba53b0a68c7b609d81"
    },
    {
      "type": "Feature",
      "properties": {
        "Zip": "02478",
        "Address components": "51, Leonard Street, Belmont, Middlesex County, Massachusetts, United States, 02478",
        "Street": "Leonard Street",
        "Street number": "51",
        "CITY": "Belmont",
        "City": "Belmont",
        "A_A_B_C_D": "51 Leonard Street Belmont MA 02478",
        "STATE": "MA",
        "State": "Massachusetts",
        "ADDR": "51 Leonard Street",
        "Country": "United States",
        "PHON": "0",
        "ZIP9": "02478",
        "title": "Craft Beer Cellar - Belmont"
      },
      "geometry": {
        "coordinates": [
          -71.175328,
          42.397327
        ],
        "type": "Point"
      },
      "id": "b6746f1e199f9342f40e9d24817d1dc8"
    },
    {
      "type": "Feature",
      "properties": {
        "Zip": "01970",
        "Address components": "1, Church Street, Salem, Essex County, Massachusetts, United States, 01970",
        "Street": "Church Street",
        "Street number": "1",
        "CITY": "SALEM",
        "City": "Salem",
        "A_A_B_C_D": "MUSEUM PL MALL SUITE 100 SALEM MA 01970",
        "STATE": "MA",
        "State": "Massachusetts",
        "ADDR": "MUSEUM PL MALL SUITE 100",
        "Country": "United States",
        "PHON": "19782320008",
        "ZIP9": "01970",
        "title": "VILLAGE TAVERN"
      },
      "geometry": {
        "coordinates": [
          -70.89319,
          42.522417
        ],
        "type": "Point"
      },
      "id": "b9108a84f9d6a7f27ac44fa4eda809c7"
    },
    {
      "type": "Feature",
      "properties": {
        "Zip": "02360",
        "Address components": "230, Sandwich Street, Plymouth, Plymouth County, Massachusetts, United States, 02360",
        "Street": "Sandwich Street",
        "Street number": "230",
        "CITY": "PLYMOUTH",
        "City": "Plymouth",
        "A_A_B_C_D": "230 SANDWICH STREET PLYMOUTH MA 02360",
        "STATE": "MA",
        "State": "Massachusetts",
        "ADDR": "230 SANDWICH STREET",
        "Country": "United States",
        "PHON": "15087461298",
        "ZIP9": "02360",
        "title": "BRADFORD S PACKAGE"
      },
      "geometry": {
        "coordinates": [
          -70.646739,
          41.947755
        ],
        "type": "Point"
      },
      "id": "bb6a43f0f147c09598a5787072205e7a"
    },
    {
      "type": "Feature",
      "properties": {
        "Zip": "01833",
        "Address components": "103, East Main Street, Georgetown, Essex County, Massachusetts, United States, 01833",
        "Street": "East Main Street",
        "Street number": "103",
        "CITY": "GEORGETOWN",
        "City": "Georgetown",
        "A_A_B_C_D": "103 E MAIN ST BOX 195 GEORGETOWN MA 01833",
        "STATE": "MA",
        "State": "Massachusetts",
        "ADDR": "103 E MAIN ST BOX 195",
        "Country": "United States",
        "PHON": "19783522091",
        "ZIP9": "01833",
        "title": "GEORGETOWN LIQUORS"
      },
      "geometry": {
        "coordinates": [
          -70.986926,
          42.720172
        ],
        "type": "Point"
      },
      "id": "bdd4343f5ab6134dee15d44b41a98199"
    },
    {
      "type": "Feature",
      "properties": {
        "Zip": "02645",
        "Address components": "# 21, 1421, Orleans-Harwich Road, East Harwich, Harwich, Barnstable County, Massachusetts, United States, 02645, 2150",
        "Street": "Orleans-Harwich Road",
        "Street number": "1421",
        "CITY": "HARWICH",
        "City": "Harwich",
        "A_A_B_C_D": "1421 RTE. 39  ORLEANS RD. HARWICH MA 02645",
        "STATE": "MA",
        "State": "Massachusetts",
        "ADDR": "1421 RTE. 39  ORLEANS RD.",
        "Country": "United States",
        "PHON": "76176408778",
        "ZIP9": "02645",
        "title": "PORTSIDE LIQUORS III"
      },
      "geometry": {
        "coordinates": [
          -70.022441,
          41.706806
        ],
        "type": "Point"
      },
      "id": "c00644a4c4124fff9674a2d16bad7045"
    },
    {
      "type": "Feature",
      "properties": {
        "Zip": "01803",
        "Address components": "53, Third Avenue, Burlington, Middlesex County, Massachusetts, United States, 01803",
        "Street": "Third Avenue",
        "Street number": "53",
        "CITY": "Burlington",
        "City": "Burlington",
        "A_A_B_C_D": "53 Third Ave Burlington MA 01803",
        "STATE": "MA",
        "State": "Massachusetts",
        "ADDR": "53 Third Ave",
        "Country": "United States",
        "PHON": "7812722385",
        "ZIP9": "01803",
        "title": "Wegman s"
      },
      "geometry": {
        "coordinates": [
          -71.225981,
          42.487508
        ],
        "type": "Point"
      },
      "id": "c06409f7bbebd9995a51eb1fc5f339d3"
    },
    {
      "type": "Feature",
      "properties": {
        "Zip": "02673",
        "Address components": "511, Massachusetts 28, West Yarmouth, Yarmouth, Barnstable County, Massachusetts, United States, 02673, 4948",
        "Street": "Massachusetts 28",
        "Street number": "511",
        "CITY": "WEST YARMOUTH",
        "City": "Yarmouth",
        "A_A_B_C_D": "511 MA 28 WEST YARMOUTH MA 02673",
        "STATE": "MA",
        "State": "Massachusetts",
        "ADDR": "511 MA 28",
        "Country": "United States",
        "PHON": "15087755000",
        "ZIP9": "02673",
        "title": "LUKES LIQUOR  YARMOUTH"
      },
      "geometry": {
        "coordinates": [
          -70.236272,
          41.649623
        ],
        "type": "Point"
      },
      "id": "c0d4a420f9dcfddf186f7ad41e7d37bf"
    },
    {
      "type": "Feature",
      "properties": {
        "Zip": "02671",
        "Address components": "224, Main Street, West Harwich, Harwich, Barnstable County, Massachusetts, United States, 02671, 1220",
        "Street": "Main Street",
        "Street number": "224",
        "CITY": "HARWICH",
        "City": "Harwich",
        "A_A_B_C_D": "224 MAIN ST RT 28 HARWICH MA 02671",
        "STATE": "MA",
        "State": "Massachusetts",
        "ADDR": "224 MAIN ST RT 28",
        "Country": "United States",
        "PHON": "15084300300",
        "ZIP9": "02671",
        "title": "LUKES SUPER LIQUOR-HAR"
      },
      "geometry": {
        "coordinates": [
          -70.102182,
          41.669441
        ],
        "type": "Point"
      },
      "id": "c0e022624bd400cef253b96806a299d6"
    },
    {
      "type": "Feature",
      "properties": {
        "Zip": "02540",
        "Address components": "31, Spring Bars Road, Teaticket, Falmouth, Barnstable County, Massachusetts, United States, 02540",
        "Street": "Spring Bars Road",
        "Street number": "31",
        "CITY": "FALMOUTH",
        "City": "Falmouth",
        "A_A_B_C_D": "31 SPRING BARS RD. FALMOUTH MA 02540",
        "STATE": "MA",
        "State": "Massachusetts",
        "ADDR": "31 SPRING BARS RD.",
        "Country": "United States",
        "PHON": "15085482600",
        "ZIP9": "02540",
        "title": "KAPPY S"
      },
      "geometry": {
        "coordinates": [
          -70.597399,
          41.557977
        ],
        "type": "Point"
      },
      "id": "c0fdb879a55fc24f34941bfcdf3572c3"
    },
    {
      "type": "Feature",
      "properties": {
        "Zip": "01810",
        "Address components": "209, North Main Street, Andover, Andover, Andover, Essex County, Massachusetts, United States, 01810",
        "Street": "North Main Street",
        "Street number": "209",
        "CITY": "ANDOVER",
        "City": "Andover",
        "A_A_B_C_D": "209 NO MAIN ST ANDOVER MA 01810",
        "STATE": "MA",
        "State": "Massachusetts",
        "ADDR": "209 NO MAIN ST",
        "Country": "United States",
        "PHON": "19784700500",
        "ZIP9": "01810",
        "title": "ANDOVER CLASSIC WINES LLC"
      },
      "geometry": {
        "coordinates": [
          -71.144331,
          42.664766
        ],
        "type": "Point"
      },
      "id": "c233c86c6c7a083d26bd1fcc54bdb8dd"
    },
    {
      "type": "Feature",
      "properties": {
        "Zip": "02110",
        "Address components": "8, Summer Street, Downtown Crossing, Boston, Suffolk County, Massachusetts, United States, 02110",
        "Street": "Summer Street",
        "Street number": "8",
        "CITY": "Boston",
        "City": "Boston",
        "A_A_B_C_D": "8 Summer Street Boston MA 02110",
        "STATE": "MA",
        "State": "Massachusetts",
        "ADDR": "8 Summer Street",
        "Country": "United States",
        "PHON": "0",
        "ZIP9": "02110",
        "title": "Roche Bros #121"
      },
      "geometry": {
        "coordinates": [
          -71.060188,
          42.35548
        ],
        "type": "Point"
      },
      "id": "c2a9ddfd73b9b66615b0055659e586e0"
    },
    {
      "type": "Feature",
      "properties": {
        "Zip": "02155",
        "Address components": "269, Spring Street, Medford, Middlesex County, Massachusetts, United States, 02155, 2833",
        "Street": "Spring Street",
        "Street number": "269",
        "CITY": "Medford",
        "City": "Medford",
        "A_A_B_C_D": "269 Spring St Medford MA 02155",
        "STATE": "MA",
        "State": "Massachusetts",
        "ADDR": "269 Spring St",
        "Country": "United States",
        "PHON": "17813917882",
        "ZIP9": "02155",
        "title": "Anthony s Liquor Mart"
      },
      "geometry": {
        "coordinates": [
          -71.089819,
          42.42447
        ],
        "type": "Point"
      },
      "id": "c2d2b5d900e7ea15cea1b03f3030f7d8"
    },
    {
      "type": "Feature",
      "properties": {
        "Zip": "02139",
        "Address components": "1226, Cambridge Street, Wellington-Harrington, Cambridge, Middlesex County, Massachusetts, United States, 02139",
        "Street": "Cambridge Street",
        "Street number": "1226",
        "CITY": "Cambridge",
        "City": "Cambridge",
        "A_A_B_C_D": "1226 Cambridge Street Cambridge MA 02139",
        "STATE": "MA",
        "State": "Massachusetts",
        "ADDR": "1226 Cambridge Street",
        "Country": "United States",
        "PHON": "6179452902",
        "ZIP9": "02139",
        "title": "Inman Sq Wine & Spirits"
      },
      "geometry": {
        "coordinates": [
          -71.097866,
          42.373249
        ],
        "type": "Point"
      },
      "id": "c4681f90f6600279e50c01abf4a4fa95"
    },
    {
      "type": "Feature",
      "properties": {
        "Zip": "02115",
        "Address components": "50, Dalton Street, Fenway/Kenmore, Boston, Suffolk County, Massachusetts, United States, 02115, 3129",
        "Street": "Dalton Street",
        "Street number": "50",
        "CITY": "Boston",
        "City": "Boston",
        "A_A_B_C_D": "50 Dalton St Boston MA 02115",
        "STATE": "MA",
        "State": "Massachusetts",
        "ADDR": "50 Dalton St",
        "Country": "United States",
        "PHON": "6174379999",
        "ZIP9": "02115",
        "title": "Bukowskis"
      },
      "geometry": {
        "coordinates": [
          -71.085711,
          42.346988
        ],
        "type": "Point"
      },
      "id": "c524ede740ecc4369f2f5a2c3f95bbbf"
    },
    {
      "type": "Feature",
      "properties": {
        "Zip": "02186",
        "Address components": "10, Bassett Street, Milton, Norfolk County, Massachusetts, United States, 02186, 5507",
        "Street": "Bassett Street",
        "Street number": "10",
        "CITY": "Milton",
        "City": "Milton",
        "A_A_B_C_D": "10 Bassett Street Milton MA 02186",
        "STATE": "MA",
        "State": "Massachusetts",
        "ADDR": "10 Bassett Street",
        "Country": "United States",
        "PHON": "6176965274",
        "ZIP9": "02186",
        "title": "The Fruit Center"
      },
      "geometry": {
        "coordinates": [
          -71.040769,
          42.25995
        ],
        "type": "Point"
      },
      "id": "c5ac54f2e9e1192f46a935ef18770698"
    },
    {
      "type": "Feature",
      "properties": {
        "Zip": "01887",
        "Address components": "240, Main Street, Wilmington, Middlesex County, Massachusetts, United States, 01887",
        "Street": "Main Street",
        "Street number": "240",
        "CITY": "WILMINGTON",
        "City": "Wilmington",
        "A_A_B_C_D": "240 MAIN STREET WILMINGTON MA 01887",
        "STATE": "MA",
        "State": "Massachusetts",
        "ADDR": "240 MAIN STREET",
        "Country": "United States",
        "PHON": "19786587061",
        "ZIP9": "01887",
        "title": "WILM PLAZA WINE & SPIRITS"
      },
      "geometry": {
        "coordinates": [
          -71.178688,
          42.55627
        ],
        "type": "Point"
      },
      "id": "c8b08b23b877f874896e00538cabfa06"
    },
    {
      "type": "Feature",
      "properties": {
        "Zip": "02155",
        "Address components": "3850, Mystic Valley Parkway, Medford, Middlesex County, Massachusetts, United States, 02155",
        "Street": "Mystic Valley Parkway",
        "Street number": "3850",
        "CITY": "Medford",
        "City": "Medford",
        "A_A_B_C_D": "3850 Mystic Valley Parkway Medford MA 02155",
        "STATE": "MA",
        "State": "Massachusetts",
        "ADDR": "3850 Mystic Valley Parkway",
        "Country": "United States",
        "PHON": "0",
        "ZIP9": "02155",
        "title": "Wegman s Mass Inc - Off Prem"
      },
      "geometry": {
        "coordinates": [
          -71.091931,
          42.406902
        ],
        "type": "Point"
      },
      "id": "ca36098d28c96cb43c008d0ec3bc25dc"
    },
    {
      "type": "Feature",
      "properties": {
        "Zip": "02215",
        "Address components": "506, Park Drive, Fenway/Kenmore, Boston, Suffolk County, Massachusetts, United States, 02215",
        "Street": "Park Drive",
        "Street number": "506",
        "CITY": "Boston",
        "City": "Boston",
        "A_A_B_C_D": "506 Park Drive Boston MA 02215",
        "STATE": "MA",
        "State": "Massachusetts",
        "ADDR": "506 Park Drive",
        "Country": "United States",
        "PHON": "8572504959",
        "ZIP9": "02215",
        "title": "Mei Mei Restaurant"
      },
      "geometry": {
        "coordinates": [
          -71.106,
          42.347499
        ],
        "type": "Point"
      },
      "id": "ca68ebe3dd1e1728dcd62b7579729389"
    },
    {
      "type": "Feature",
      "properties": {
        "Zip": "01864",
        "Address components": "160, Main Street, North Reading, Middlesex County, Massachusetts, United States, 01864, 3116",
        "Street": "Main Street",
        "Street number": "160",
        "CITY": "N READING",
        "City": "North Reading",
        "A_A_B_C_D": "160 MAIN ST N READING MA 01864",
        "STATE": "MA",
        "State": "Massachusetts",
        "ADDR": "160 MAIN ST",
        "Country": "United States",
        "PHON": "19786646554",
        "ZIP9": "01864",
        "title": "NEW ENGLAND BEV & REDEMP"
      },
      "geometry": {
        "coordinates": [
          -71.113211,
          42.581976
        ],
        "type": "Point"
      },
      "id": "cf8c4df1beb2e83e830a19ebfdcd722d"
    },
    {
      "type": "Feature",
      "properties": {
        "Zip": "01930",
        "Address components": "121, Eastern Avenue, Gloucester, Essex County, Massachusetts, United States, 01930",
        "Street": "Eastern Avenue",
        "Street number": "121",
        "CITY": "GLOUCESTER",
        "City": "Gloucester",
        "A_A_B_C_D": "121 EASTERN AVE GLOUCESTER MA 01930",
        "STATE": "MA",
        "State": "Massachusetts",
        "ADDR": "121 EASTERN AVE",
        "Country": "United States",
        "PHON": "19782838414",
        "ZIP9": "01930",
        "title": "SEABREEZE LIQUORS"
      },
      "geometry": {
        "coordinates": [
          -70.640401,
          42.622645
        ],
        "type": "Point"
      },
      "id": "d004d74c0cb36b4ab2032fe8bcef353d"
    },
    {
      "type": "Feature",
      "properties": {
        "Zip": "02139",
        "Address components": "1281, Cambridge Street, Wellington-Harrington, Cambridge, Middlesex County, Massachusetts, United States, 02139",
        "Street": "Cambridge Street",
        "Street number": "1281",
        "CITY": "Cambridge",
        "City": "Cambridge",
        "A_A_B_C_D": "1281 Cambridge St. Cambridge MA 02139",
        "STATE": "MA",
        "State": "Massachusetts",
        "ADDR": "1281 Cambridge St.",
        "Country": "United States",
        "PHON": "6174977077",
        "ZIP9": "02139",
        "title": "Bukowski Tavern"
      },
      "geometry": {
        "coordinates": [
          -71.098756,
          42.373675
        ],
        "type": "Point"
      },
      "id": "d2a025da2fbe0ae7c9d01c3b8cfd3a04"
    },
    {
      "type": "Feature",
      "properties": {
        "Zip": "02601",
        "Address components": "22, Channel Point Road, Hyannis, Barnstable, Barnstable County, Massachusetts, United States, 02601",
        "Street": "Channel Point Road",
        "Street number": "22",
        "CITY": "HYANNIS",
        "City": "Barnstable",
        "A_A_B_C_D": "22 CHANNEL POINT RD HYANNIS MA 02601",
        "STATE": "MA",
        "State": "Massachusetts",
        "ADDR": "22 CHANNEL POINT RD",
        "Country": "United States",
        "PHON": "17743926016",
        "ZIP9": "02601",
        "title": "HYANNIS HARBOR TOURS"
      },
      "geometry": {
        "coordinates": [
          -70.279403,
          41.647728
        ],
        "type": "Point"
      },
      "id": "d413f228066dcca0755a20900153bb3b"
    },
    {
      "type": "Feature",
      "properties": {
        "Zip": "02554",
        "Address components": "14, Amelia Drive, Nantucket, Nantucket County, Massachusetts, United States, 02554, 6064",
        "Street": "Amelia Drive",
        "Street number": "14",
        "CITY": "NANTUCKET",
        "City": "Nantucket",
        "A_A_B_C_D": "14 AMELIA DRIVE NANTUCKET MA 02554",
        "STATE": "MA",
        "State": "Massachusetts",
        "ADDR": "14 AMELIA DRIVE",
        "Country": "United States",
        "PHON": "15082284554",
        "ZIP9": "02554",
        "title": "ANNYE S WHOLE FOODS"
      },
      "geometry": {
        "coordinates": [
          -70.085738,
          41.266138
        ],
        "type": "Point"
      },
      "id": "d55035d7d1b8677a7bafdaa4235f3a81"
    },
    {
      "type": "Feature",
      "properties": {
        "Zip": "02026",
        "Address components": "1101, Legacy Place, Dedham, Norfolk County, Massachusetts, United States, 02026",
        "Street": "Legacy Place",
        "Street number": "1101",
        "CITY": "Dedham",
        "City": "Dedham",
        "A_A_B_C_D": "1101 Legacy Place Dedham MA 02026",
        "STATE": "MA",
        "State": "Massachusetts",
        "ADDR": "1101 Legacy Place",
        "Country": "United States",
        "PHON": "7813296802",
        "ZIP9": "02026",
        "title": "Whole Foods Market - Dedham"
      },
      "geometry": {
        "coordinates": [
          -71.177622,
          42.23049
        ],
        "type": "Point"
      },
      "id": "d9808dadd8ecdafdead26d7d0f117f5e"
    },
    {
      "type": "Feature",
      "properties": {
        "Zip": "02657",
        "Address components": "2, Highland Road, Provincetown, Barnstable County, Massachusetts, United States, 02657",
        "Street": "Highland Road",
        "Street number": "2",
        "CITY": "NORTH TRURO",
        "City": "Provincetown",
        "A_A_B_C_D": "2 HIGHLAND ROAD NORTH TRURO MA 02652",
        "STATE": "MA",
        "State": "Massachusetts",
        "ADDR": "2 HIGHLAND ROAD",
        "Country": "United States",
        "PHON": "15086815969",
        "ZIP9": "02652",
        "title": "SALTY MARKET"
      },
      "geometry": {
        "coordinates": [
          -70.085087,
          42.034159
        ],
        "type": "Point"
      },
      "id": "de1db51083884c9db1d03c208ba3e4a2"
    },
    {
      "type": "Feature",
      "properties": {
        "Zip": "01960",
        "Address components": "87, Lynnfield Street, South Peabody, Peabody, Essex County, Massachusetts, United States, 01960, 5232",
        "Street": "Lynnfield Street",
        "Street number": "87",
        "CITY": "PEABODY",
        "City": "Peabody",
        "A_A_B_C_D": "87 LYNNFIELD ST PEABODY MA 01960",
        "STATE": "MA",
        "State": "Massachusetts",
        "ADDR": "87 LYNNFIELD ST",
        "Country": "United States",
        "PHON": "19785318670",
        "ZIP9": "01960",
        "title": "SOUTH PEABODY LIQUORS"
      },
      "geometry": {
        "coordinates": [
          -70.952288,
          42.516935
        ],
        "type": "Point"
      },
      "id": "dec2002971ffcd8cf54065526f774fd7"
    },
    {
      "type": "Feature",
      "properties": {
        "Zip": "01760",
        "Address components": "321, Speen Street, Natick, Middlesex County, Massachusetts, United States, 01760, 1506",
        "Street": "Speen Street",
        "Street number": "321",
        "CITY": "NATICK",
        "City": "Natick",
        "A_A_B_C_D": "321 SPEEN STREET NATICK MA 01760",
        "STATE": "MA",
        "State": "Massachusetts",
        "ADDR": "321 SPEEN STREET",
        "Country": "United States",
        "PHON": "5086531117",
        "ZIP9": "01760",
        "title": "TOTAL WINE & MORE"
      },
      "geometry": {
        "coordinates": [
          -71.379654,
          42.304025
        ],
        "type": "Point"
      },
      "id": "dfa7b18c7e56c97ae07659a725223673"
    },
    {
      "type": "Feature",
      "properties": {
        "Zip": "01906",
        "Address components": "214, Broadway, Saugus, Essex County, Massachusetts, United States, 01906",
        "Street": "Broadway",
        "Street number": "214",
        "CITY": "SAUGUS",
        "City": "Saugus",
        "A_A_B_C_D": "214 BROADWAY SAUGUS MA 01906",
        "STATE": "MA",
        "State": "Massachusetts",
        "ADDR": "214 BROADWAY",
        "Country": "United States",
        "PHON": "17812335555",
        "ZIP9": "01906",
        "title": "BOSCY S LIQUORS"
      },
      "geometry": {
        "coordinates": [
          -71.016562,
          42.492789
        ],
        "type": "Point"
      },
      "id": "e159b6ad5aa5971bc04c2f106c763403"
    },
    {
      "type": "Feature",
      "properties": {
        "Zip": "02190",
        "Address components": "486, Columbian Street, Weymouth, Norfolk County, Massachusetts, United States, 02190",
        "Street": "Columbian Street",
        "Street number": "486",
        "CITY": "WEYMOUTH",
        "City": "Weymouth",
        "A_A_B_C_D": "486 COLUMBIAN STREET WEYMOUTH MA 02190",
        "STATE": "MA",
        "State": "Massachusetts",
        "ADDR": "486 COLUMBIAN STREET",
        "Country": "United States",
        "PHON": "17813312345",
        "ZIP9": "02190",
        "title": "CURTIS WEYMOUTH STORE"
      },
      "geometry": {
        "coordinates": [
          -70.971894,
          42.180925
        ],
        "type": "Point"
      },
      "id": "e2e8f482baf02e0ee664a510fcd6ce4a"
    },
    {
      "type": "Feature",
      "properties": {
        "Zip": "01760",
        "Address components": "1245, Worcester Street, Natick, Middlesex County, Massachusetts, United States, 01760",
        "Street": "Worcester Street",
        "Street number": "1245",
        "CITY": "NATICK",
        "City": "Natick",
        "A_A_B_C_D": "1245 WORCESTER STREET NATICK MA 01760",
        "STATE": "MA",
        "State": "Massachusetts",
        "ADDR": "1245 WORCESTER STREET",
        "Country": "United States",
        "PHON": "0",
        "ZIP9": "01760",
        "title": "WEGMAN S NATICK (BEER)"
      },
      "geometry": {
        "coordinates": [
          -71.384139,
          42.300802
        ],
        "type": "Point"
      },
      "id": "e3f8981b00264261aad8157b39bf7a7b"
    },
    {
      "type": "Feature",
      "properties": {
        "Zip": "02144",
        "Address components": "81, Holland Street, Tufts, Somerville, Middlesex County, Massachusetts, United States, 02144, 2738",
        "Street": "Holland Street",
        "Street number": "81",
        "CITY": "Somerville",
        "City": "Somerville",
        "A_A_B_C_D": "81 Holland Street Somerville MA 02144",
        "STATE": "MA",
        "State": "Massachusetts",
        "ADDR": "81 Holland Street",
        "Country": "United States",
        "PHON": "6176230867",
        "ZIP9": "02144",
        "title": "Dave s Fresh Pasta"
      },
      "geometry": {
        "coordinates": [
          -71.124096,
          42.398814
        ],
        "type": "Point"
      },
      "id": "e518fe88944c4c323669af2cadf44a69"
    },
    {
      "type": "Feature",
      "properties": {
        "Zip": "02021",
        "Address components": "3, Washington Street, Canton, Norfolk County, Massachusetts, United States, 02021, 4001",
        "Street": "Washington Street",
        "Street number": "3",
        "CITY": "Canton",
        "City": "Canton",
        "A_A_B_C_D": "3 Washington St Canton MA 02021",
        "STATE": "MA",
        "State": "Massachusetts",
        "ADDR": "3 Washington St",
        "Country": "United States",
        "PHON": "0",
        "ZIP9": "02021",
        "title": "Lukes Liquors - Canton"
      },
      "geometry": {
        "coordinates": [
          -71.148093,
          42.138638
        ],
        "type": "Point"
      },
      "id": "ea30823abdd81aeadc349ed1e3209398"
    },
    {
      "type": "Feature",
      "properties": {
        "Zip": "02143",
        "Address components": "45, Union Square, Prospect Hill, Somerville, Middlesex County, Massachusetts, United States, 02143, 3008",
        "Street": "Union Square",
        "Street number": "45",
        "CITY": "Somerville",
        "City": "Somerville",
        "A_A_B_C_D": "45 Union Square Somerville MA 02143",
        "STATE": "MA",
        "State": "Massachusetts",
        "ADDR": "45 Union Square",
        "Country": "United States",
        "PHON": "6176239620",
        "ZIP9": "02143",
        "title": "Reliable Market"
      },
      "geometry": {
        "coordinates": [
          -71.096365,
          42.380188
        ],
        "type": "Point"
      },
      "id": "eaa7c07c8fd6daec830474c076089a81"
    },
    {
      "type": "Feature",
      "properties": {
        "Zip": "01940",
        "Address components": "427, Walnut Street, Lynnfield, Essex County, Massachusetts, United States, 01940",
        "Street": "Walnut Street",
        "Street number": "427",
        "CITY": "LYNNFIELD",
        "City": "Lynnfield",
        "A_A_B_C_D": "427 WALNUT STREET LYNNFIELD MA 01940",
        "STATE": "MA",
        "State": "Massachusetts",
        "ADDR": "427 WALNUT STREET",
        "Country": "United States",
        "PHON": "17817764300",
        "ZIP9": "01940",
        "title": "WHOLE FOODS MARKET"
      },
      "geometry": {
        "coordinates": [
          -71.033914,
          42.515209
        ],
        "type": "Point"
      },
      "id": "ecaab765f410fbdb61e4c29985162735"
    },
    {
      "type": "Feature",
      "properties": {
        "Zip": "02667",
        "Address components": "1, Old Cahoon Hollow Road, Wellfleet, Barnstable County, Massachusetts, United States, 02667",
        "Street": "Old Cahoon Hollow Road",
        "Street number": "1",
        "CITY": "WELLFLEET",
        "City": "Wellfleet",
        "A_A_B_C_D": "1 OLD CAHOON HOLLOW ROAD WELLFLEET MA 02667",
        "STATE": "MA",
        "State": "Massachusetts",
        "ADDR": "1 OLD CAHOON HOLLOW ROAD",
        "Country": "United States",
        "PHON": "15083496055",
        "ZIP9": "02667",
        "title": "WELLFLEET BEACHCOMBER"
      },
      "geometry": {
        "coordinates": [
          -70.023225,
          41.932886
        ],
        "type": "Point"
      },
      "id": "ed41bbd8f9ff683936ef0defdcd8e537"
    },
    {
      "type": "Feature",
      "properties": {
        "Zip": "01945",
        "Address components": "16, Atlantic Avenue, Marblehead, Essex County, Massachusetts, United States, 01945, 3231",
        "Street": "Atlantic Avenue",
        "Street number": "16",
        "CITY": "MARBLEHEAD",
        "City": "Marblehead",
        "A_A_B_C_D": "16 ATLANTIC AVE MARBLEHEAD MA 01945",
        "STATE": "MA",
        "State": "Massachusetts",
        "ADDR": "16 ATLANTIC AVE",
        "Country": "United States",
        "PHON": "17816310149",
        "ZIP9": "01945",
        "title": "SHUBIE S LIQUOR STORE"
      },
      "geometry": {
        "coordinates": [
          -70.854591,
          42.500549
        ],
        "type": "Point"
      },
      "id": "edea5d0dfd663dac3268329be7225645"
    },
    {
      "type": "Feature",
      "properties": {
        "Zip": "02120",
        "Address components": "1619, Tremont Street, Medical Center Area, Boston, Suffolk County, Massachusetts, United States, 02120",
        "Street": "Tremont Street",
        "Street number": "1619",
        "CITY": "Roxbury",
        "City": "Boston",
        "A_A_B_C_D": "1619 Tremont St Roxbury MA 02120",
        "STATE": "MA",
        "State": "Massachusetts",
        "ADDR": "1619 Tremont St",
        "Country": "United States",
        "PHON": "6175667744",
        "ZIP9": "02120",
        "title": "Flann O briens"
      },
      "geometry": {
        "coordinates": [
          -71.103328,
          42.333895
        ],
        "type": "Point"
      },
      "id": "effbe7a27b2f81eff571f8be7c033dae"
    },
    {
      "type": "Feature",
      "properties": {
        "Zip": "02090",
        "Address components": "169, University Avenue, Westwood, Norfolk County, Massachusetts, United States, 02090",
        "Street": "University Avenue",
        "Street number": "169",
        "CITY": "Westwood",
        "City": "Westwood",
        "A_A_B_C_D": "169 University Ave Westwood MA 02090",
        "STATE": "MA",
        "State": "Massachusetts",
        "ADDR": "169 University Ave",
        "Country": "United States",
        "PHON": "7812340300",
        "ZIP9": "02090",
        "title": "Wegmans #57"
      },
      "geometry": {
        "coordinates": [
          -71.154692,
          42.206806
        ],
        "type": "Point"
      },
      "id": "f11f6de910ded4fc9f9a45cd1b547b83"
    },
    {
      "type": "Feature",
      "properties": {
        "Zip": "02138",
        "Address components": "6, Brattle Street, West Cambridge, Cambridge, Middlesex County, Massachusetts, United States, 02138",
        "Street": "Brattle Street",
        "Street number": "6",
        "CITY": "Cambridge",
        "City": "Cambridge",
        "A_A_B_C_D": "6 Brattle St Cambridge MA 02138",
        "STATE": "MA",
        "State": "Massachusetts",
        "ADDR": "6 Brattle St",
        "Country": "United States",
        "PHON": "6174918888",
        "ZIP9": "02138",
        "title": "Cardullo s Inc"
      },
      "geometry": {
        "coordinates": [
          -71.11988,
          42.373595
        ],
        "type": "Point"
      },
      "id": "f1e06c67dc5c2b741fc8c4f39cc60abc"
    },
    {
      "type": "Feature",
      "properties": {
        "Zip": "01832",
        "Address components": "651, Broadway, Haverhill, Essex County, Massachusetts, United States, 01832",
        "Street": "Broadway",
        "Street number": "651",
        "CITY": "HAVERHILL",
        "City": "Haverhill",
        "A_A_B_C_D": "651 BROADWAY HAVERHILL MA 01830",
        "STATE": "MA",
        "State": "Massachusetts",
        "ADDR": "651 BROADWAY",
        "Country": "United States",
        "PHON": "19783726711",
        "ZIP9": "01830",
        "title": "ONE STOP MARKET"
      },
      "geometry": {
        "coordinates": [
          -71.127351,
          42.784908
        ],
        "type": "Point"
      },
      "id": "f30ce8c9dd04e251d3419fab6c4ff7c9"
    },
    {
      "type": "Feature",
      "properties": {
        "Zip": "01913",
        "Address components": "19, Main Street, Amesbury, Essex County, Massachusetts, United States, 01913, 2808",
        "Street": "Main Street",
        "Street number": "19",
        "CITY": "AMESBURY",
        "City": "Amesbury",
        "A_A_B_C_D": "19 MAIN STREET AMESBURY MA 01913",
        "STATE": "MA",
        "State": "Massachusetts",
        "ADDR": "19 MAIN STREET",
        "Country": "United States",
        "PHON": "16033057767",
        "ZIP9": "01913",
        "title": "CRAFT BEER CELLAR"
      },
      "geometry": {
        "coordinates": [
          -70.930809,
          42.858235
        ],
        "type": "Point"
      },
      "id": "f3755c053cae7504e118539e080c63ca"
    },
    {
      "type": "Feature",
      "properties": {
        "Zip": "02132",
        "Address components": "1800, Centre Street, West Roxbury, Boston, Suffolk County, Massachusetts, United States, 02132, 1901",
        "Street": "Centre Street",
        "Street number": "1800",
        "CITY": "West Roxbury",
        "City": "Boston",
        "A_A_B_C_D": "1800 Center St West Roxbury MA 02132",
        "STATE": "MA",
        "State": "Massachusetts",
        "ADDR": "1800 Center St",
        "Country": "United States",
        "PHON": "6174695747",
        "ZIP9": "02132",
        "title": "Roche Bros #115"
      },
      "geometry": {
        "coordinates": [
          -71.151993,
          42.286236
        ],
        "type": "Point"
      },
      "id": "f6ba0a81d9cfc3fefd7c767e441a95d0"
    }
  ],
  "type": "FeatureCollection"
}